region,region_population_thousands,latitude,longitude,property_type,property_age,area_sqm,bedrooms,bathrooms,floor,distance_to_center,has_elevator,has_garden,has_parking,price,address,neighborhood,construction_quality,energy_rating,last_renovation,transaction_date,price_per_sqm
Manouba,400,36.80408177601387,10.09567178296875,Apartment,21,70,2,2,6,4.4,True,False,False,114000,"29 Rue Abou Hamed El Ghazali, Apt. 16, Manouba, Tunisia",,Premium,C,2023.0,2024-01-06,1629
Gafsa,120,34.44312736966011,8.776000219302995,Apartment,1,127,4,2,4,1.9,False,True,False,266000,"36 Rue Carthage, Apt. 35, Gafsa, Tunisia",,Luxury,A,,2023-09-30,2094
Monastir,200,35.79598248424061,10.805606721548834,Villa,19,328,5,3,0,3.4,False,True,True,3252000,"9 Rue Cité Essalem, Monastir, Tunisia",Centre Ville,Standard,E,,2022-12-16,9915
Kairouan,150,35.69193992186043,10.116977381652738,Apartment,3,97,4,2,0,3.9,False,True,False,173000,"56 Avenue Farhat Hached, Apt. 2, Kairouan, Tunisia",,Good,B,,2022-01-04,1784
Ariana,350,36.84659088264186,10.192117326618611,House,21,250,5,3,0,1.8,False,True,True,1480000,"108 Avenue Jardins d'El Menzah, Ariana, Tunisia",Quartier Lac,Luxury,F,2010.0,2022-02-17,5920
Ariana,350,36.84577498873318,10.205930206449711,Apartment,12,137,1,1,3,3.2,False,False,True,327000,"2 Avenue Borj Louzir, Apt. 22, Ariana, Tunisia",Menzah 5,Basic,D,2021.0,2023-10-02,2387
Tunis,634,36.80826738840308,10.188266167335415,Apartment,31,174,4,1,8,3.0,False,False,False,475000,"196 Boulevard Bab Saadoun, Apt. 25, Tunis, Tunisia",Lac 1,Standard,E,,2024-03-26,2730
Gabès,200,33.86622434834781,10.08378729310262,House,14,127,4,2,0,6.7,False,True,True,372000,"92 Boulevard Ibn Khaldoun, Gabès, Tunisia",Résidence Jardins,Good,E,,2023-07-26,2929
Kairouan,150,35.655174866275495,10.090703376759787,Apartment,21,163,3,2,7,12.2,True,False,False,207000,"68 Rue Omar Ibn Al Khattab, Apt. 35, Kairouan, Tunisia",Résidence Centre,Standard,D,,2024-02-03,1270
Sousse,270,35.827487233066684,10.652496745699867,Apartment,24,128,2,1,2,4.3,False,False,True,288000,"21 Place Bouhsina, Apt. 40, Sousse, Tunisia",Médina,Luxury,E,2021.0,2023-04-26,2250
Tunis,634,36.814846372372934,10.178269816169987,Apartment,26,140,1,2,1,0.5,False,False,True,428000,"148 Avenue Mokhtar Attia, Apt. 3, Tunis, Tunisia",,Basic,D,2021.0,2022-06-23,3057
Gafsa,120,34.44805600571971,8.794962260028793,House,27,249,2,3,0,5.6,False,True,True,526000,"59 Boulevard Tahar Haddad, Gafsa, Tunisia",El Palmeraie,Standard,D,2012.0,2023-02-09,2112
Sfax,330,34.76210826014313,10.76167939866361,House,15,181,4,3,0,3.7,False,True,True,854000,"26 Impasse Carthage, Sfax, Tunisia",Médina,Good,F,2019.0,2022-10-05,4718
Ben Arous,600,36.74124521373966,10.205941334318236,Apartment,16,91,1,1,8,3.8,True,False,False,194000,"117 Boulevard Hannibal, Apt. 23, Ben Arous, Tunisia",,Good,D,2020.0,2023-03-05,2132
Ariana,350,36.87380424257419,10.176665149900277,Apartment,5,159,4,1,0,4.6,False,False,True,487000,"180 Rue Borj Louzir, Apt. 11, Ariana, Tunisia",,Basic,F,2023.0,2022-05-27,3063
Ariana,350,36.8526387564136,10.197223545394195,Apartment,15,98,1,2,8,5.4,False,False,False,288000,"42 Impasse Ennasr, Apt. 36, Ariana, Tunisia",,Standard,D,2013.0,2023-04-06,2939
Ben Arous,600,36.75652082938899,10.233329159849358,Apartment,7,158,3,2,6,2.9,True,False,False,512000,"176 Boulevard Carthage, Ben Arous, Tunisia",Hay Jardins,Basic,B,2023.0,2022-04-15,3241
Jendouba,100,36.48441276651749,8.775086870241083,House,19,114,2,1,0,0.8,False,True,True,216000,"15 Avenue El Ghazela, Jendouba, Tunisia",,Standard,E,2022.0,2023-03-04,1895
Nabeul,200,36.45715971135585,10.76099094323169,Villa,16,207,5,3,0,7.5,False,True,True,1458000,"81 Impasse Mohamed V, Nabeul, Tunisia",,Standard,D,2016.0,2023-04-12,7043
Ben Arous,600,36.76468155688499,10.2494301878547,Penthouse,1,214,4,3,9,2.4,True,True,True,2012000,"17 Avenue Hannibal, Ben Arous, Tunisia",Quartier Centre,Premium,C,,2022-12-26,9402
Kasserine,120,35.185310602915706,8.834985848444619,Apartment,32,143,3,1,1,15.0,False,True,False,126000,"184 Boulevard Kheireddine, Apt. 32, Kasserine, Tunisia",,Good,F,,2024-03-30,881
Ariana,350,36.84710116845682,10.203934282594627,Apartment,9,153,1,1,4,1.1,True,False,False,424000,"37 Boulevard Riadh El Andalous, Apt. 36, Ariana, Tunisia",Borj Louzir,Basic,G,2023.0,2022-05-14,2771
Ben Arous,600,36.759468978297996,10.233423458522864,Studio,4,51,0,1,6,2.4,True,True,False,66000,"68 Place Tahar Sfar, Apt. 38, Ben Arous, Tunisia",Hay Centre,Standard,B,,2022-01-10,1294
Manouba,400,36.80888929339941,10.098432830199464,Studio,14,43,0,1,8,0.9,True,False,False,47000,"93 Avenue Charles de Gaulle, Manouba, Tunisia",Hay Centre,Standard,E,2023.0,2023-01-05,1093
Zaghouan,150,36.3945221263559,10.144265634632115,Villa,19,255,6,4,0,5.6,False,True,True,1711000,"131 Impasse 14 Janvier, Zaghouan, Tunisia",,Premium,E,2021.0,2023-08-11,6710
Sfax,330,34.72547779528392,10.77555871986802,Apartment,33,147,1,1,1,4.9,False,False,True,268000,"29 Avenue Sfax El Jadida, Apt. 28, Sfax, Tunisia",,Standard,D,2011.0,2022-09-08,1823
Ben Arous,600,36.73758884773494,10.207548314494474,Villa,15,203,4,3,0,4.9,False,True,True,1647000,"17 Impasse Omar Ibn Al Khattab, Ben Arous, Tunisia",,Good,E,,2024-02-21,8113
Jendouba,100,36.49791230131786,8.789015371975303,Apartment,18,166,3,1,4,14.4,True,False,True,188000,"153 Impasse Charles de Gaulle, Apt. 36, Jendouba, Tunisia",El Lac,Premium,E,2021.0,2024-01-19,1133
Kairouan,150,35.67498584124668,10.088437706597565,House,14,116,5,3,0,2.0,False,True,True,330000,"175 Rue Habib Bourguiba, Kairouan, Tunisia",,Premium,F,,2022-12-08,2845
Tunis,634,36.80940855919452,10.173850116770609,Apartment,13,138,4,2,6,2.8,True,False,True,564000,"193 Boulevard Tahar Sfar, Apt. 22, Tunis, Tunisia",Médina,Basic,D,,2022-09-27,4087
Kasserine,120,35.19384338450633,8.851532256980178,House,5,252,5,3,0,3.0,False,True,False,794000,"76 Impasse Ibn Khaldoun, Kasserine, Tunisia",,Premium,C,,2022-03-22,3151
Ariana,350,36.8626185909986,10.186994199700914,Villa,5,399,5,3,0,1.9,False,True,True,4648000,"185 Boulevard El Ghazela, Ariana, Tunisia",,Luxury,D,,2023-01-14,11649
Tunis,634,36.818356620697834,10.158335647174153,Apartment,2,114,1,2,4,1.1,False,False,False,423000,"46 Place El Ghazela, Tunis, Tunisia",Carthage,Good,C,,2023-05-25,3711
Gafsa,120,34.42413845030219,8.775816169713517,Apartment,22,139,4,2,1,11.0,False,False,True,160000,"77 Place Abou Hamed El Ghazali, Apt. 10, Gafsa, Tunisia",Quartier Jardins,Standard,E,2009.0,2024-01-19,1151
Gafsa,120,34.44642679425513,8.759600151363635,House,26,255,2,2,0,7.8,False,True,True,463000,"196 Avenue Mokhtar Attia, Gafsa, Tunisia",,Basic,E,2015.0,2022-06-11,1816
Sfax,330,34.74324074378592,10.772333179053332,Studio,4,57,0,1,3,5.2,True,False,True,64000,"1 Place Gremda, Apt. 2, Sfax, Tunisia",Afran,Basic,D,,2022-08-29,1123
Ben Arous,600,36.7525508993762,10.207570151508136,Apartment,10,155,1,1,4,5.3,True,False,True,316000,"93 Boulevard Ibn Khaldoun, Apt. 16, Ben Arous, Tunisia",,Standard,A,,2023-08-17,2039
Tunis,634,36.8301230695014,10.182400521568805,Villa,7,442,7,3,0,2.0,False,True,True,7172000,"22 Impasse Farhat Hached, Tunis, Tunisia",Le Bardo,Standard,B,,2023-05-23,16226
Sousse,270,35.83020931221595,10.621430489135376,Apartment,5,86,3,1,9,3.9,True,False,False,224000,"137 Avenue El Ghazela, Apt. 31, Sousse, Tunisia",,Good,E,,2022-09-24,2605
Zaghouan,150,36.40197490425534,10.139757474597916,Apartment,33,148,1,1,5,11.6,True,False,False,161000,"43 Boulevard Tahar Sfar, Apt. 39, Zaghouan, Tunisia",Cité Médina,Basic,G,2017.0,2022-07-09,1088
Tunis,634,36.7852447921001,10.161808017677373,Studio,22,68,0,1,6,1.9,False,False,True,94000,"139 Avenue Bab Saadoun, Apt. 26, Tunis, Tunisia",,Basic,E,,2022-09-15,1382
Béja,100,36.74247362598094,9.168690997610328,Apartment,0,108,1,1,4,13.0,False,False,True,99000,"167 Boulevard Tahar Haddad, Apt. 34, Béja, Tunisia",Résidence Parc,Standard,A,,2024-03-25,917
Tunis,634,36.79124791357493,10.181745572562507,Apartment,34,109,1,2,1,1.7,False,False,True,296000,"58 Rue Bab Saadoun, Apt. 38, Tunis, Tunisia",Manar,Standard,F,2017.0,2023-04-20,2716
Medenine,200,33.353337356568126,10.47959732592895,House,10,147,4,2,0,4.1,False,True,False,473000,"59 Place Tahar Sfar, Medenine, Tunisia",,Standard,C,2023.0,2022-10-17,3218
Ben Arous,600,36.757140395981914,10.20926052214203,House,50,135,3,1,0,0.6,False,True,False,386000,"2 Rue Carthage, Ben Arous, Tunisia",El Lac,Basic,F,2019.0,2022-06-02,2859
Sousse,270,35.80132305254128,10.612237197608112,Apartment,24,97,3,2,5,3.7,False,False,True,221000,"59 Rue Mohamed V, Sousse, Tunisia",Kantaoui,Premium,C,2012.0,2023-10-28,2278
Ben Arous,600,36.77000820541043,10.209198624181404,Apartment,28,71,3,2,5,1.3,False,False,False,160000,"19 Place Ali Belhouane, Apt. 32, Ben Arous, Tunisia",El Palmeraie,Standard,C,2009.0,2022-11-30,2254
Jendouba,100,36.478357568220616,8.777994994357146,House,38,275,4,3,0,10.4,False,True,False,382000,"139 Avenue République, Jendouba, Tunisia",El Palmeraie,Standard,D,2011.0,2023-07-08,1389
Kef,120,36.1997996735971,8.703020418824465,Apartment,22,151,3,1,1,9.3,False,False,True,136000,"147 Place El Ferdaous, Apt. 31, Kef, Tunisia",,Premium,F,2015.0,2023-08-26,901
Ariana,350,36.85858563087629,10.172596126628187,House,28,168,2,3,0,0.6,False,True,False,687000,"25 Rue République, Ariana, Tunisia",Cité Jardins,Basic,C,2010.0,2022-04-09,4089
Gafsa,120,34.42285392570675,8.787880654031857,Apartment,17,96,2,2,3,13.0,False,True,True,130000,"111 Boulevard Tahar Haddad, Apt. 30, Gafsa, Tunisia",,Standard,B,2018.0,2023-10-02,1354
Mahdia,150,35.50814535268761,11.053821334608719,Apartment,13,90,2,2,6,6.7,True,False,False,185000,"14 Rue El Ferdaous, Apt. 22, Mahdia, Tunisia",Quartier Jardins,Good,B,,2023-08-19,2056
Tataouine,100,32.92337665903316,10.431231180946831,House,47,161,2,1,0,1.3,False,True,False,236000,"64 Avenue Ibn Khaldoun, Tataouine, Tunisia",Quartier Palmeraie,Good,F,2019.0,2023-12-26,1466
Medenine,200,33.33323991603231,10.481474733443648,House,10,270,3,2,0,8.8,False,True,True,796000,"138 Impasse République, Medenine, Tunisia",Hay Parc,Luxury,B,,2022-11-20,2948
Kairouan,150,35.69142979723561,10.12291371488741,Apartment,16,156,2,2,0,14.4,False,False,False,177000,"109 Avenue 14 Janvier, Apt. 16, Kairouan, Tunisia",Résidence Médina,Basic,E,2012.0,2023-09-22,1135
Medenine,200,33.36340372283333,10.51975355496877,Apartment,1,76,2,2,0,0.7,False,False,True,162000,"114 Place Farhat Hached, Apt. 35, Medenine, Tunisia",,Standard,C,,2023-05-19,2132
Tunis,634,36.81153960746698,10.191543284862194,Duplex,25,156,2,2,7,1.1,True,False,False,815000,"193 Avenue Farhat Hached, Apt. 32, Tunis, Tunisia",Centre Ville,Standard,E,2020.0,2024-02-12,5224
Ben Arous,600,36.74256029013402,10.234838521008632,Apartment,30,130,3,1,5,2.2,True,False,True,302000,"55 Impasse Hédi Chaker, Ben Arous, Tunisia",El Oliveraie,Luxury,F,2010.0,2022-11-13,2323
Tunis,634,36.80428247747199,10.180600866988847,Studio,23,41,0,1,6,4.2,True,False,False,52000,"100 Boulevard La Marsa, Tunis, Tunisia",Carthage,Good,E,2009.0,2023-03-15,1268
Manouba,400,36.822288828018756,10.086095917779861,House,34,258,3,3,0,1.6,False,True,True,889000,"74 Impasse Abou El Kacem Chebbi, Manouba, Tunisia",El Palmeraie,Premium,C,,2022-11-30,3446
Manouba,400,36.80030198058472,10.11823208955643,Studio,5,56,0,1,9,5.4,True,False,False,57000,"188 Place Ibn Sina, Apt. 32, Manouba, Tunisia",,Basic,E,,2022-04-02,1018
Ben Arous,600,36.731111214742555,10.227581714920667,Apartment,18,121,1,1,6,2.1,True,False,True,323000,"49 Boulevard 14 Janvier, Apt. 4, Ben Arous, Tunisia",,Basic,D,,2023-08-12,2669
Sfax,330,34.7612400400204,10.765818150390908,Apartment,31,117,3,2,4,2.3,True,True,True,353000,"16 Boulevard Gremda, Apt. 38, Sfax, Tunisia",Médina,Premium,E,,2023-06-30,3017
Manouba,400,36.811720353710605,10.084487208961468,Studio,29,30,0,1,8,1.7,True,False,False,25000,"129 Place Hédi Chaker, Apt. 33, Manouba, Tunisia",,Standard,G,2022.0,2022-10-31,833
Ben Arous,600,36.74546377445323,10.245902420790236,Apartment,27,88,2,2,9,1.9,True,False,False,194000,"48 Rue Farhat Hached, Apt. 16, Ben Arous, Tunisia",,Good,D,2018.0,2023-03-10,2205
Kef,120,36.18556090658842,8.715637109687838,House,34,254,3,1,0,4.0,False,True,True,704000,"31 Place Charles de Gaulle, Kef, Tunisia",Hay Parc,Basic,G,2018.0,2023-11-29,2772
Ariana,350,36.842478985677,10.171401407822756,Apartment,7,142,4,2,7,0.9,True,True,True,562000,"11 Place Jardins d'El Menzah, Apt. 38, Ariana, Tunisia",El Lac,Good,D,2023.0,2023-01-19,3958
Sfax,330,34.76378425943435,10.754149308364344,Apartment,21,81,4,2,3,2.1,False,False,True,220000,"67 Avenue Afran, Apt. 21, Sfax, Tunisia",Médina,Premium,F,,2023-01-23,2716
Tunis,634,36.81166065310497,10.160485753659364,Apartment,23,179,3,2,2,5.2,False,False,True,583000,"34 Boulevard El Menzah, Apt. 5, Tunis, Tunisia",Lac 2,Good,F,2014.0,2022-08-05,3257
Kebili,80,33.71325571428615,8.9902283354353,Villa,12,229,5,4,0,5.1,False,True,True,1040000,"118 Place Habib Bourguiba, Kebili, Tunisia",El Médina,Premium,D,2021.0,2024-02-01,4541
Mahdia,150,35.50838326264987,11.043505766118772,House,3,216,2,2,0,11.6,False,True,False,671000,"26 Rue Kheireddine, Mahdia, Tunisia",,Premium,B,,2022-04-23,3106
Ben Arous,600,36.75738607637368,10.241617360655233,House,5,171,5,1,0,4.3,False,True,True,873000,"55 Place Tahar Sfar, Ben Arous, Tunisia",Quartier Jardins,Standard,F,,2024-03-16,5105
Tunis,634,36.8018208268287,10.200491887397073,Villa,12,412,4,3,0,5.3,False,True,True,5026000,"18 Avenue Bab Bhar, Tunis, Tunisia",Lac 1,Premium,D,,2023-02-10,12199
Sfax,330,34.748034147667866,10.780262445914461,House,3,168,4,1,0,1.1,False,True,False,863000,"113 Place Chihia, Sfax, Tunisia",Médina,Good,F,,2022-01-31,5137
Sousse,270,35.83067526556237,10.616164398600242,Apartment,1,163,1,1,6,3.0,True,False,False,480000,"168 Place Omar Ibn Al Khattab, Apt. 36, Sousse, Tunisia",Kantaoui,Basic,G,,2024-03-23,2945
Monastir,200,35.76798458555526,10.811289747412623,Apartment,18,140,2,2,3,1.8,False,False,True,366000,"35 Boulevard Skanes, Apt. 7, Monastir, Tunisia",Centre Ville,Basic,E,2014.0,2022-07-28,2614
Mahdia,150,35.52504132488585,11.075220003364375,Studio,18,39,0,1,2,5.2,False,True,True,35000,"142 Avenue El Ferdaous, Apt. 39, Mahdia, Tunisia",Cité Oliveraie,Good,C,2022.0,2022-07-09,897
Tunis,634,36.8153199184455,10.17154831598158,Apartment,1,71,1,2,0,4.5,False,True,False,241000,"53 Boulevard Bab Bhar, Apt. 17, Tunis, Tunisia",La Marsa,Good,B,,2023-10-21,3394
Manouba,400,36.79360223860251,10.109822554399445,Apartment,27,86,1,2,7,5.8,False,False,True,145000,"24 Impasse Mohamed V, Manouba, Tunisia",,Luxury,C,,2023-07-29,1686
Tunis,634,36.805207897293954,10.167789477607531,Studio,19,62,0,1,0,5.0,False,False,True,80000,"198 Avenue Bab Bhar, Apt. 17, Tunis, Tunisia",La Marsa,Standard,D,2011.0,2023-11-09,1290
Gabès,200,33.887231098908266,10.075216692606922,Apartment,31,144,1,1,4,4.0,True,False,True,210000,"190 Impasse Liberté, Apt. 28, Gabès, Tunisia",Quartier Centre,Standard,F,2020.0,2023-07-22,1458
Kasserine,120,35.16350851270641,8.828827849729556,Duplex,14,184,3,2,7,9.9,True,True,False,353000,"3 Rue Tahar Sfar, Apt. 10, Kasserine, Tunisia",Quartier Palmeraie,Good,D,,2023-06-08,1918
Manouba,400,36.79179791670547,10.121232723879542,Villa,19,225,7,4,0,0.7,False,True,True,2179000,"10 Boulevard Tahar Sfar, Manouba, Tunisia",,Good,A,2020.0,2023-08-27,9684
Tunis,634,36.79195486822948,10.163017656502163,Apartment,18,145,2,1,7,2.2,True,False,True,448000,"111 Avenue Bab Saadoun, Apt. 24, Tunis, Tunisia",Menzah,Standard,F,2010.0,2022-09-22,3090
Ben Arous,600,36.73847674369435,10.241753056657988,Studio,29,45,0,1,7,0.7,False,False,False,43000,"92 Avenue Mohamed V, Apt. 7, Ben Arous, Tunisia",,Good,D,,2023-11-19,956
Manouba,400,36.80567528296359,10.100270796987626,Apartment,15,72,3,1,7,0.7,True,True,False,164000,"200 Place Mokhtar Attia, Manouba, Tunisia",El Jardins,Standard,E,2020.0,2023-07-02,2278
Monastir,200,35.75355045784932,10.802921565428665,Villa,16,444,5,4,0,0.9,False,True,True,5215000,"192 Avenue Beni Hassen, Monastir, Tunisia",Zone Touristique,Good,C,2017.0,2023-08-10,11745
Sidi Bouzid,160,35.03559127749135,9.50163276216008,Apartment,29,90,2,1,4,1.2,True,False,True,83000,"42 Avenue Carthage, Sidi Bouzid, Tunisia",,Standard,E,,2023-05-11,922
Medenine,200,33.359161943935376,10.480835328379783,Penthouse,8,252,2,2,7,3.0,True,False,True,1178000,"46 Boulevard Habib Bourguiba, Apt. 27, Medenine, Tunisia",,Premium,C,,2023-07-26,4675
Bizerte,150,37.27631815510505,9.894561484313964,Apartment,21,147,2,1,7,6.4,True,False,False,219000,"189 Avenue Tahar Haddad, Apt. 7, Bizerte, Tunisia",Cité Centre,Good,E,2011.0,2023-09-19,1490
Tunis,634,36.8008986377199,10.197978291571419,Apartment,13,148,3,2,6,2.0,False,False,True,638000,"121 Avenue La Marsa, Apt. 30, Tunis, Tunisia",Menzah,Basic,F,,2022-11-07,4311
Monastir,200,35.75918478271998,10.84796972448339,Villa,20,190,6,2,0,2.2,False,True,True,1929000,"58 Rue Khniss, Monastir, Tunisia",Centre Ville,Good,E,,2022-04-18,10153
Mahdia,150,35.51717116587657,11.084266719639345,House,17,111,3,3,0,5.7,False,True,False,363000,"50 Impasse Tahar Haddad, Mahdia, Tunisia",,Premium,E,2021.0,2023-12-12,3270
Siliana,80,36.093230861677625,9.368570196599972,House,52,134,2,2,0,5.5,False,True,True,161000,"72 Rue Ali Belhouane, Siliana, Tunisia",,Basic,F,,2023-05-21,1201
Mahdia,150,35.52650905862624,11.05097833881546,House,22,278,4,3,0,2.1,False,True,True,1203000,"72 Boulevard El Ghazela, Mahdia, Tunisia",Cité Jardins,Basic,E,2015.0,2022-05-10,4327
Béja,100,36.71720862610309,9.191740420900086,Villa,22,373,7,4,0,5.7,False,True,True,1716000,"131 Impasse Abou Hamed El Ghazali, Béja, Tunisia",,Basic,E,2020.0,2023-03-17,4601
Jendouba,100,36.51436581497627,8.802570174192459,House,5,128,3,3,0,12.1,False,True,False,205000,"138 Boulevard Tahar Haddad, Jendouba, Tunisia",,Basic,E,,2024-02-23,1602
Nabeul,200,36.43654012045281,10.752399901760961,Penthouse,11,231,2,2,14,6.5,True,False,True,1151000,"30 Boulevard Habib Bourguiba, Apt. 17, Nabeul, Tunisia",Quartier Médina,Luxury,C,2022.0,2022-08-20,4983
Tunis,634,36.818427302669846,10.15968972781268,Apartment,0,120,3,2,2,2.7,False,False,False,484000,"112 Boulevard El Manar, Apt. 21, Tunis, Tunisia",Le Bardo,Premium,C,,2023-12-10,4033
Tunis,634,36.80086115706051,10.170638272853004,Apartment,1,175,3,1,3,2.7,True,True,False,764000,"30 Impasse El Manar, Tunis, Tunisia",,Standard,B,,2023-12-24,4366
Tunis,634,36.796724521217705,10.205647343977734,Apartment,21,174,4,1,6,4.7,True,False,False,632000,"182 Impasse La Marsa, Apt. 35, Tunis, Tunisia",Lac 1,Good,G,,2022-12-31,3632
Sidi Bouzid,160,35.045438870674,9.496683807889674,House,17,275,5,2,0,9.0,False,True,True,472000,"185 Avenue Tahar Haddad, Sidi Bouzid, Tunisia",,Standard,E,2014.0,2022-05-17,1716
Ben Arous,600,36.77713088186575,10.222160089122882,Apartment,32,79,4,1,3,1.3,False,False,True,177000,"111 Rue Mokhtar Attia, Ben Arous, Tunisia",Résidence Médina,Standard,D,,2023-06-16,2241
Béja,100,36.74069200842264,9.178426548165223,House,39,134,4,2,0,2.9,False,True,True,250000,"160 Boulevard Ali Belhouane, Béja, Tunisia",Résidence Oliveraie,Standard,E,2014.0,2023-07-19,1866
Medenine,200,33.35837668359075,10.485532877065566,Apartment,14,124,3,2,5,1.5,False,False,False,271000,"32 Boulevard Tahar Haddad, Apt. 27, Medenine, Tunisia",,Standard,B,,2022-05-21,2185
Ben Arous,600,36.775684308853215,10.214238585420544,Apartment,21,105,1,1,1,1.4,False,False,False,206000,"104 Boulevard Ali Belhouane, Apt. 13, Ben Arous, Tunisia",,Good,C,2021.0,2023-05-30,1962
Nabeul,200,36.44261102534905,10.75030961170534,Penthouse,3,156,3,3,9,13.3,True,True,True,784000,"171 Impasse Paris, Apt. 12, Nabeul, Tunisia",,Luxury,D,,2022-01-11,5026
Mahdia,150,35.49928775707827,11.067610568838322,House,23,276,4,2,0,5.3,False,True,False,1087000,"146 Boulevard Omar Ibn Al Khattab, Mahdia, Tunisia",El Lac,Premium,E,,2023-11-27,3938
Ben Arous,600,36.750528675053474,10.24041849685449,Apartment,10,120,4,1,1,3.9,False,True,True,329000,"141 Rue Charles de Gaulle, Apt. 14, Ben Arous, Tunisia",Cité Centre,Standard,A,,2023-12-03,2742
Tunis,634,36.79291656261843,10.159422899361843,Apartment,3,143,2,1,2,3.6,False,False,True,449000,"156 Boulevard El Manar, Apt. 29, Tunis, Tunisia",Manar,Premium,C,,2023-06-27,3140
Ben Arous,600,36.743296469873655,10.227015433243423,Villa,21,340,4,3,0,1.3,False,True,True,3278000,"55 Place Tahar Haddad, Ben Arous, Tunisia",Cité Jardins,Good,E,2022.0,2022-06-14,9641
Ariana,350,36.84590100260963,10.18833986448282,Apartment,6,86,2,2,9,5.2,True,False,True,235000,"169 Rue Ennasr, Apt. 40, Ariana, Tunisia",Menzah 6,Good,B,,2022-08-08,2733
Tataouine,100,32.92759915091468,10.428769592184414,House,44,113,2,3,0,5.6,False,True,True,187000,"24 Avenue Ali Belhouane, Tataouine, Tunisia",,Basic,E,2009.0,2022-04-10,1655
Sfax,330,34.74476536240921,10.779517171398565,House,41,112,2,2,0,2.3,False,True,True,338000,"51 Avenue Carthage, Sfax, Tunisia",,Good,E,,2022-11-16,3018
Sidi Bouzid,160,35.02088714564765,9.490690400670076,House,25,271,2,2,0,13.2,False,True,True,390000,"12 Avenue Habib Bourguiba, Sidi Bouzid, Tunisia",Hay Jardins,Standard,D,2017.0,2022-07-17,1439
Gabès,200,33.88963696024554,10.094166734020964,House,42,215,5,2,0,10.8,False,True,True,461000,"157 Rue Hédi Chaker, Gabès, Tunisia",El Jardins,Standard,E,2021.0,2023-11-10,2144
Sfax,330,34.75065487936821,10.755836577174552,Apartment,20,177,4,1,6,2.5,True,False,True,505000,"50 Impasse Gremda, Apt. 16, Sfax, Tunisia",Gremda,Basic,E,2012.0,2024-01-03,2853
Ariana,350,36.86273186439887,10.170967652227722,Duplex,11,143,4,3,2,2.8,False,True,True,854000,"193 Rue El Ghazela, Apt. 15, Ariana, Tunisia",Borj Louzir,Standard,D,2021.0,2022-02-09,5972
Medenine,200,33.34948600570674,10.509567133947236,Duplex,21,127,4,3,2,11.5,False,False,True,354000,"179 Place Liberté, Apt. 36, Medenine, Tunisia",El Médina,Good,D,2009.0,2023-11-10,2787
Kef,120,36.159520043866316,8.708312505369756,Apartment,6,158,2,2,2,10.4,False,False,False,169000,"32 Impasse Carthage, Apt. 30, Kef, Tunisia",,Good,D,,2022-06-05,1070
Sfax,330,34.76455159203958,10.75633682812843,Studio,16,68,0,1,3,2.3,True,False,True,88000,"153 Boulevard Tahar Sfar, Sfax, Tunisia",Gremda,Standard,G,2023.0,2022-12-24,1294
Medenine,200,33.33999727025659,10.521996507907986,Apartment,3,130,3,2,2,2.0,False,True,False,288000,"157 Place Abou El Kacem Chebbi, Apt. 36, Medenine, Tunisia",,Good,F,,2022-06-02,2215
Manouba,400,36.82026309379329,10.10110350655621,Apartment,11,160,2,2,3,3.6,False,False,True,355000,"41 Impasse Abou El Kacem Chebbi, Apt. 16, Manouba, Tunisia",Résidence Lac,Premium,G,2022.0,2022-02-10,2219
Tunis,634,36.82139023406705,10.199718313322798,House,37,247,4,1,0,2.6,False,True,False,857000,"197 Place Hannibal, Tunis, Tunisia",La Marsa,Basic,F,,2022-01-12,3470
Ben Arous,600,36.75114440358686,10.227055418246593,Apartment,26,166,4,2,9,1.9,True,True,True,480000,"161 Avenue Hédi Chaker, Apt. 5, Ben Arous, Tunisia",Hay Palmeraie,Standard,B,,2023-10-31,2892
Nabeul,200,36.445602546782595,10.760835307000924,Apartment,16,144,1,2,5,14.4,True,False,True,250000,"74 Avenue Ibn Sina, Apt. 21, Nabeul, Tunisia",Résidence Oliveraie,Standard,E,2013.0,2022-05-10,1736
Sfax,330,34.75045831271452,10.739461153310405,Studio,13,35,0,1,1,5.5,False,False,False,33000,"36 Avenue Farhat Hached, Apt. 10, Sfax, Tunisia",Quartier Jardins,Standard,D,2021.0,2024-03-05,943
Gabès,200,33.899547981165654,10.097227997041813,Villa,2,361,5,4,0,13.7,False,True,True,2660000,"55 Rue Ibn Sina, Gabès, Tunisia",Cité Médina,Premium,E,,2023-08-12,7368
Tunis,634,36.784937695321126,10.183985862758165,Apartment,19,82,2,1,0,2.2,False,False,False,236000,"139 Impasse Bab Bhar, Apt. 14, Tunis, Tunisia",Manar,Good,D,2012.0,2024-02-12,2878
Béja,100,36.721458213948786,9.20058747024313,Apartment,30,134,2,2,5,3.9,True,False,True,178000,"100 Place Paris, Béja, Tunisia",Quartier Médina,Good,G,,2023-12-09,1328
Nabeul,200,36.43649973018047,10.75382323047461,Apartment,25,164,1,2,7,12.2,True,False,True,295000,"196 Place Habib Bourguiba, Apt. 1, Nabeul, Tunisia",Quartier Lac,Standard,C,2022.0,2023-06-14,1799
Ben Arous,600,36.75618443455927,10.206030515160675,Apartment,30,166,4,2,7,4.3,True,False,False,401000,"77 Impasse Mokhtar Attia, Ben Arous, Tunisia",Résidence Médina,Good,E,,2023-10-01,2416
Tunis,634,36.83009226506628,10.18213076220516,Apartment,34,154,1,1,5,2.4,True,False,True,400000,"138 Place Paris, Apt. 15, Tunis, Tunisia",Cité Centre,Basic,F,2020.0,2022-02-01,2597
Manouba,400,36.79894384271157,10.095470342099462,Apartment,8,149,2,2,5,2.9,True,False,True,407000,"57 Boulevard Hédi Chaker, Apt. 2, Manouba, Tunisia",,Good,D,,2022-10-24,2732
Tataouine,100,32.95049288917588,10.441145156219253,Apartment,4,172,4,2,2,6.4,False,True,False,288000,"87 Impasse Charles de Gaulle, Apt. 30, Tataouine, Tunisia",,Basic,B,,2022-06-15,1674
Manouba,400,36.79403381982433,10.078453562346544,Apartment,7,156,3,2,1,1.8,False,True,False,439000,"160 Place 14 Janvier, Apt. 26, Manouba, Tunisia",,Standard,C,,2023-11-18,2814
Jendouba,100,36.49099296991951,8.795102404352003,House,20,222,3,2,0,10.4,False,True,True,393000,"145 Rue Kheireddine, Jendouba, Tunisia",,Basic,D,2020.0,2023-03-01,1770
Sousse,270,35.82308131825976,10.620974080184677,House,19,136,5,3,0,4.6,False,True,False,620000,"35 Impasse Bouhsina, Sousse, Tunisia",Sahloul,Good,G,2018.0,2023-08-11,4559
Manouba,400,36.79270924998048,10.088636473825519,Apartment,20,143,4,1,6,4.6,False,False,False,279000,"13 Boulevard Liberté, Apt. 14, Manouba, Tunisia",Cité Lac,Standard,E,2013.0,2023-12-13,1951
Tozeur,70,33.94169621864428,8.1256513356295,House,33,221,3,1,0,2.9,False,True,True,442000,"84 Boulevard Abou El Kacem Chebbi, Tozeur, Tunisia",,Basic,G,,2023-07-15,2000
Gafsa,120,34.449806203797735,8.783261522788269,Apartment,15,117,4,2,7,8.3,True,False,False,162000,"98 Boulevard El Ghazela, Apt. 27, Gafsa, Tunisia",,Good,D,,2022-02-16,1385
Ben Arous,600,36.737258195914514,10.247857004589676,Apartment,15,166,3,2,9,0.6,True,False,False,551000,"21 Impasse Hannibal, Apt. 35, Ben Arous, Tunisia",,Basic,D,,2023-07-10,3319
Béja,100,36.723617768656744,9.192183567175226,Duplex,29,144,2,2,7,2.3,True,False,False,280000,"90 Avenue Mohamed V, Apt. 3, Béja, Tunisia",Cité Lac,Standard,D,,2023-05-05,1944
Ben Arous,600,36.77748557916046,10.205808767516,Apartment,17,155,4,2,5,0.8,True,True,False,510000,"8 Avenue El Ghazela, Apt. 2, Ben Arous, Tunisia",Quartier Parc,Premium,E,2022.0,2023-07-11,3290
Ben Arous,600,36.73313472798938,10.23932283707314,Apartment,27,174,2,2,4,5.6,True,False,True,382000,"40 Avenue Omar Ibn Al Khattab, Apt. 8, Ben Arous, Tunisia",,Good,F,2018.0,2022-06-27,2195
Tunis,634,36.795591250164776,10.165715069847504,Apartment,17,139,2,2,3,5.4,True,True,False,444000,"120 Boulevard Bab Saadoun, Apt. 11, Tunis, Tunisia",Cité Lac,Good,C,2009.0,2022-11-20,3194
Kasserine,120,35.14916809399098,8.806492335599309,Duplex,10,127,2,2,6,8.3,True,True,True,246000,"156 Rue Omar Ibn Al Khattab, Apt. 11, Kasserine, Tunisia",Résidence Lac,Standard,B,,2022-08-31,1937
Béja,100,36.73932428015599,9.163421671368477,Apartment,13,116,2,2,0,4.0,False,False,True,163000,"28 Place Bardo, Apt. 20, Béja, Tunisia",Cité Parc,Good,B,,2022-09-25,1405
Tunis,634,36.804886030798556,10.186794840758974,Studio,10,54,0,1,4,3.3,True,False,False,94000,"102 Avenue El Menzah, Apt. 16, Tunis, Tunisia",Médina,Standard,C,,2023-01-22,1741
Ben Arous,600,36.749717590028446,10.204655332616813,Apartment,15,169,2,2,8,3.2,True,False,False,439000,"179 Boulevard Ibn Khaldoun, Ben Arous, Tunisia",,Standard,E,,2023-05-23,2598
Medenine,200,33.354075075129394,10.477025661227083,House,50,199,3,3,0,7.1,False,True,False,444000,"31 Place Omar Ibn Al Khattab, Medenine, Tunisia",El Parc,Luxury,F,2023.0,2023-11-04,2231
Ben Arous,600,36.766394494718874,10.247965224689407,House,28,238,2,1,0,5.0,False,True,False,694000,"89 Place Mohamed V, Ben Arous, Tunisia",Quartier Palmeraie,Basic,D,,2022-01-01,2916
Ariana,350,36.859141996052855,10.19737712365489,Apartment,20,79,3,1,9,1.3,True,False,False,210000,"18 Place Borj Louzir, Apt. 1, Ariana, Tunisia",,Good,F,2023.0,2023-08-24,2658
Bizerte,150,37.27324916963088,9.868360430931173,House,24,153,3,2,0,10.2,False,True,True,370000,"126 Rue Paris, Bizerte, Tunisia",Quartier Jardins,Standard,D,2018.0,2023-08-23,2418
Kebili,80,33.72347122676852,8.9882966755335,Apartment,0,126,2,1,3,13.2,False,False,False,124000,"93 Impasse Paris, Apt. 28, Kebili, Tunisia",Résidence Parc,Good,B,,2023-03-31,984
Ben Arous,600,36.74509081823208,10.234053487700736,Apartment,10,149,4,1,1,4.1,False,True,True,427000,"188 Place Liberté, Ben Arous, Tunisia",Hay Médina,Good,E,,2023-11-08,2866
Sousse,270,35.84584537810729,10.657702924947069,House,47,161,3,1,0,3.1,False,True,True,556000,"199 Impasse Kantaoui, Sousse, Tunisia",Khezama,Good,C,2012.0,2023-06-01,3453
Mahdia,150,35.50504795202111,11.059841240264218,Apartment,10,82,1,2,3,2.9,True,False,False,174000,"112 Place Abou El Kacem Chebbi, Apt. 16, Mahdia, Tunisia",Quartier Oliveraie,Good,D,,2024-02-06,2122
Ben Arous,600,36.74223471579643,10.251243593659522,Apartment,1,130,3,1,4,4.6,True,False,False,369000,"72 Impasse Farhat Hached, Apt. 30, Ben Arous, Tunisia",,Standard,C,,2022-12-04,2838
Monastir,200,35.75964071522365,10.830191478802385,Apartment,31,127,3,2,1,0.7,False,False,False,314000,"87 Rue Cité Essalem, Apt. 21, Monastir, Tunisia",Skanes,Premium,E,2015.0,2023-10-28,2472
Manouba,400,36.79852751337593,10.08595041451739,House,38,262,5,3,0,3.8,False,True,False,875000,"125 Avenue Liberté, Manouba, Tunisia",,Standard,E,2023.0,2022-02-07,3340
Sidi Bouzid,160,35.03354842936881,9.510739646790782,House,37,174,2,1,0,13.5,False,True,True,188000,"67 Boulevard Mokhtar Attia, Sidi Bouzid, Tunisia",,Good,F,2021.0,2024-02-12,1080
Sidi Bouzid,160,35.01604831534199,9.489727090910176,House,13,120,3,2,0,6.2,False,True,True,202000,"153 Boulevard Hannibal, Sidi Bouzid, Tunisia",Quartier Centre,Premium,C,2022.0,2023-03-22,1683
Kef,120,36.161728607901765,8.697626041499525,Apartment,18,153,1,1,6,12.7,True,False,False,135000,"3 Place Tahar Sfar, Kef, Tunisia",El Jardins,Good,E,,2022-03-14,882
Tunis,634,36.80347814708865,10.182023006567322,Apartment,4,137,2,1,2,3.6,False,True,False,459000,"105 Impasse Lafayette, Apt. 16, Tunis, Tunisia",Manar,Good,B,,2023-01-28,3350
Sfax,330,34.728539620418225,10.751122856543722,Apartment,2,153,2,2,7,5.1,True,False,True,462000,"183 Impasse Abou Hamed El Ghazali, Apt. 2, Sfax, Tunisia",Médina,Standard,B,,2022-03-10,3020
Manouba,400,36.78874835101279,10.087160989192212,House,29,177,3,2,0,4.2,False,True,True,478000,"76 Avenue Farhat Hached, Manouba, Tunisia",,Good,E,2013.0,2022-09-13,2701
Ariana,350,36.885827921969025,10.217835369083625,House,36,230,3,3,0,5.3,False,True,True,840000,"79 Place Ennasr, Ariana, Tunisia",Ghazela,Standard,E,2016.0,2022-05-01,3652
Tunis,634,36.79824391450685,10.185042696813937,Apartment,27,155,4,2,3,5.4,False,False,False,421000,"136 Boulevard El Manar, Apt. 36, Tunis, Tunisia",Le Bardo,Standard,F,2013.0,2023-10-29,2716
Kairouan,150,35.69857976955555,10.074909191132045,Villa,12,227,6,3,0,7.9,False,True,True,1071000,"91 Impasse Ali Belhouane, Kairouan, Tunisia",El Oliveraie,Luxury,E,,2022-06-04,4718
Sousse,270,35.84003417851688,10.657018477639447,Apartment,25,98,2,2,4,2.7,True,False,False,225000,"60 Rue Hammam Sousse, Apt. 21, Sousse, Tunisia",,Standard,C,,2022-05-05,2296
Tunis,634,36.786066286716675,10.164572384301646,Apartment,22,85,2,2,2,1.3,False,False,True,274000,"196 Avenue El Manar, Apt. 31, Tunis, Tunisia",Menzah,Good,C,,2023-04-16,3224
Béja,100,36.748637315138566,9.183577007182016,House,20,186,4,1,0,13.0,False,True,True,372000,"186 Place Hannibal, Béja, Tunisia",Résidence Lac,Luxury,C,,2023-06-25,2000
Ben Arous,600,36.72900983172359,10.216181599938178,Apartment,29,176,4,2,4,4.0,True,True,True,517000,"135 Place El Ghazela, Apt. 7, Ben Arous, Tunisia",Quartier Oliveraie,Luxury,B,,2023-07-01,2938
Sidi Bouzid,160,35.03579718371344,9.495445445551237,House,29,124,4,3,0,10.1,False,True,True,179000,"76 Avenue République, Sidi Bouzid, Tunisia",,Premium,D,2013.0,2023-11-10,1444
Ariana,350,36.87415801890684,10.220371075646273,House,6,166,2,3,0,5.3,False,True,True,802000,"4 Place Borj Louzir, Ariana, Tunisia",Ghazela,Premium,A,,2024-01-10,4831
Sousse,270,35.81387555996919,10.636511005093425,Studio,13,49,0,1,3,0.9,True,False,True,75000,"14 Place Khezama, Apt. 9, Sousse, Tunisia",Médina,Good,E,,2023-07-02,1531
Manouba,400,36.81106617739297,10.092282262972361,Studio,4,65,0,1,0,3.6,False,True,True,74000,"193 Impasse Abou Hamed El Ghazali, Apt. 1, Manouba, Tunisia",El Médina,Good,C,,2024-01-06,1138
Tataouine,100,32.91605809469212,10.474772828159193,Apartment,7,132,2,1,8,7.9,True,False,True,140000,"73 Impasse Kheireddine, Apt. 22, Tataouine, Tunisia",El Jardins,Standard,C,,2023-06-17,1061
Ariana,350,36.880165859333324,10.195516651414712,Apartment,28,116,1,2,1,1.1,False,False,False,261000,"65 Impasse El Ghazela, Apt. 5, Ariana, Tunisia",Ennasr,Basic,D,2017.0,2023-11-21,2250
Manouba,400,36.8145622711342,10.083363052677983,Apartment,12,112,2,1,6,0.6,True,False,True,246000,"126 Rue Charles de Gaulle, Apt. 4, Manouba, Tunisia",Résidence Médina,Good,C,,2024-01-06,2196
Tunis,634,36.80868935351959,10.191248506656073,House,19,183,5,3,0,4.2,False,True,False,1125000,"78 Rue El Manar, Tunis, Tunisia",Médina,Good,F,2019.0,2023-10-04,6148
Medenine,200,33.34065835141933,10.526014258529248,House,8,173,2,2,0,5.0,False,True,False,537000,"31 Place Carthage, Medenine, Tunisia",Quartier Médina,Good,E,,2022-03-30,3104
Gabès,200,33.88696708281238,10.091748685629609,Apartment,24,92,1,1,9,14.5,True,True,True,126000,"107 Place El Ghazela, Apt. 40, Gabès, Tunisia",Cité Palmeraie,Premium,D,,2023-03-21,1370
Ben Arous,600,36.766907601380794,10.211823125579082,Apartment,21,99,1,2,7,4.3,True,True,True,244000,"199 Place Carthage, Apt. 29, Ben Arous, Tunisia",Cité Lac,Standard,D,,2023-10-24,2465
Sousse,270,35.81872579068531,10.62694794751888,Villa,6,184,7,3,0,3.8,False,True,True,2354000,"110 Boulevard Kantaoui, Sousse, Tunisia",,Good,C,2022.0,2022-07-08,12793
Sfax,330,34.73719035475539,10.774388991296437,Villa,19,407,7,3,0,5.2,False,True,True,4041000,"157 Rue Sfax El Jadida, Sfax, Tunisia",Afran,Premium,D,,2023-02-06,9929
Kef,120,36.18180865160817,8.729600722513299,House,44,120,4,1,0,12.1,False,True,True,135000,"54 Avenue El Ghazela, Kef, Tunisia",,Standard,E,,2023-03-09,1125
Jendouba,100,36.504924445156995,8.773203471732877,Villa,4,319,6,3,0,6.0,False,True,True,1498000,"170 Rue Hannibal, Jendouba, Tunisia",,Basic,A,,2023-02-17,4696
Ben Arous,600,36.76879893718418,10.215214483527655,Studio,12,52,0,1,6,0.9,True,False,True,68000,"62 Avenue Liberté, Apt. 11, Ben Arous, Tunisia",Cité Médina,Basic,D,,2023-09-19,1308
Tunis,634,36.79271914898999,10.18172514620274,Apartment,32,126,1,1,2,1.1,False,False,True,343000,"177 Place El Menzah, Apt. 3, Tunis, Tunisia",Médina,Standard,G,,2023-06-05,2722
Medenine,200,33.327942462298104,10.47695435174756,Villa,10,439,4,3,0,2.9,False,True,True,3240000,"74 Boulevard Carthage, Medenine, Tunisia",Quartier Oliveraie,Good,C,,2023-05-03,7380
Medenine,200,33.34731487636494,10.50205469107362,House,13,230,2,2,0,11.8,False,True,False,589000,"117 Rue Ibn Sina, Medenine, Tunisia",Cité Jardins,Good,D,,2022-10-02,2561
Sidi Bouzid,160,35.03557589072466,9.509148425730915,House,7,234,5,2,0,14.9,False,True,False,545000,"60 Boulevard Tahar Haddad, Sidi Bouzid, Tunisia",,Premium,G,,2024-02-14,2329
Manouba,400,36.81295995919814,10.115171578889468,Apartment,6,99,2,1,3,5.3,False,False,True,326000,"151 Avenue Abou Hamed El Ghazali, Apt. 35, Manouba, Tunisia",Résidence Lac,Standard,D,,2022-05-24,3293
Manouba,400,36.79137251181025,10.10046032315647,Studio,11,45,0,1,3,3.3,True,False,False,44000,"166 Avenue Carthage, Manouba, Tunisia",Quartier Palmeraie,Standard,C,,2022-06-14,978
Monastir,200,35.79589898133655,10.830355287863995,Villa,22,416,7,3,0,2.0,False,True,True,4321000,"16 Avenue Farhat Hached, Monastir, Tunisia",Skanes,Basic,D,2010.0,2022-08-31,10387
Medenine,200,33.35080070890635,10.49510217839061,Duplex,7,219,3,2,3,4.5,True,True,True,878000,"153 Place Bardo, Medenine, Tunisia",Hay Lac,Standard,C,,2022-08-22,4009
Medenine,200,33.319522475851855,10.499395014756354,House,20,257,2,2,0,13.8,False,True,True,609000,"32 Impasse Abou El Kacem Chebbi, Medenine, Tunisia",,Standard,E,,2023-06-27,2370
Mahdia,150,35.49932396954195,11.080553009118947,Apartment,22,176,2,2,9,2.3,True,True,False,428000,"78 Impasse Ibn Sina, Mahdia, Tunisia",Quartier Centre,Standard,E,2010.0,2022-10-22,2432
Sidi Bouzid,160,35.02549976511762,9.509136711376755,House,27,139,3,1,0,14.3,False,True,True,164000,"139 Impasse Mongi Slim, Sidi Bouzid, Tunisia",Hay Palmeraie,Standard,D,,2022-11-08,1180
Tunis,634,36.829406905990226,10.168881582153572,Studio,25,30,0,1,7,4.6,False,False,False,36000,"11 Impasse El Manar, Apt. 39, Tunis, Tunisia",Médina,Good,A,2018.0,2022-11-16,1200
Ariana,350,36.854902597773865,10.215377787043694,Apartment,5,136,3,2,1,5.4,False,False,False,377000,"59 Place El Ghazela, Apt. 2, Ariana, Tunisia",Riadh Andalous,Basic,D,,2023-02-14,2772
Medenine,200,33.363231111044804,10.498671955141802,Apartment,14,125,4,1,9,11.3,True,False,False,310000,"173 Boulevard El Ghazela, Apt. 12, Medenine, Tunisia",Hay Médina,Standard,D,,2022-03-12,2480
Kasserine,120,35.16324985228204,8.831704700662577,Studio,23,59,0,1,8,5.5,False,False,True,28000,"133 Impasse Hédi Chaker, Kasserine, Tunisia",Résidence Médina,Premium,B,,2022-04-04,475
Tunis,634,36.815888460318284,10.170173725768748,House,12,119,5,2,0,4.3,False,True,False,647000,"112 Impasse El Manar, Tunis, Tunisia",Lac 2,Good,B,,2023-04-17,5437
Tunis,634,36.818323658730954,10.159082867855732,House,43,163,5,2,0,4.9,False,True,True,708000,"90 Impasse Hédi Chaker, Tunis, Tunisia",La Marsa,Good,E,2011.0,2023-08-05,4344
Sousse,270,35.80196472463822,10.628914385257278,Apartment,14,93,4,1,8,2.1,True,False,False,285000,"42 Boulevard Khezama, Apt. 32, Sousse, Tunisia",Sahloul,Standard,D,2022.0,2024-01-18,3065
Tunis,634,36.799173659603035,10.172281660768357,Apartment,33,170,3,1,2,2.1,False,True,False,768000,"195 Place El Menzah, Apt. 6, Tunis, Tunisia",La Marsa,Standard,D,,2024-02-16,4518
Ariana,350,36.86205098813344,10.18663667911558,House,18,295,5,2,0,5.3,False,True,True,1407000,"30 Impasse Borj Louzir, Ariana, Tunisia",,Standard,D,2012.0,2022-11-21,4769
Kef,120,36.167212895923406,8.70537347745443,House,12,266,2,1,0,4.9,False,True,False,460000,"1 Place Mongi Slim, Kef, Tunisia",,Standard,B,2022.0,2022-11-06,1729
Sousse,270,35.84824521364051,10.630155670849744,Apartment,13,146,1,2,8,3.9,True,False,True,399000,"49 Place Khezama, Apt. 32, Sousse, Tunisia",Sahloul,Standard,C,2021.0,2023-09-01,2733
Sidi Bouzid,160,35.035535638842916,9.489627249497556,House,12,238,2,1,0,9.8,False,True,True,349000,"114 Rue Abou Hamed El Ghazali, Sidi Bouzid, Tunisia",Cité Palmeraie,Good,D,2023.0,2024-01-15,1466
Ben Arous,600,36.77746703842072,10.215380063821788,Apartment,28,175,4,2,6,1.8,False,True,True,455000,"69 Place République, Apt. 19, Ben Arous, Tunisia",Hay Palmeraie,Standard,D,2014.0,2023-01-12,2600
Monastir,200,35.78656410552662,10.836999234677085,House,38,167,3,3,0,3.4,False,True,True,575000,"32 Rue Cité Essalem, Monastir, Tunisia",Centre Ville,Good,G,2015.0,2024-02-02,3443
Ben Arous,600,36.75866622083966,10.207728916981832,Apartment,15,165,3,2,5,4.3,False,False,False,429000,"156 Avenue Abou Hamed El Ghazali, Apt. 20, Ben Arous, Tunisia",Quartier Médina,Basic,F,,2023-04-15,2600
Manouba,400,36.818243613791374,10.075204735551809,Studio,18,56,0,1,7,1.7,True,False,True,59000,"4 Place Tahar Sfar, Apt. 15, Manouba, Tunisia",El Centre,Standard,D,2015.0,2022-03-10,1054
Monastir,200,35.7823071324775,10.838179058861087,Apartment,28,170,1,1,2,4.1,False,False,False,348000,"119 Rue Ibn Khaldoun, Apt. 10, Monastir, Tunisia",Zone Touristique,Good,E,2019.0,2023-11-28,2047
Sidi Bouzid,160,35.023848494530995,9.502881100377138,Apartment,22,145,3,2,6,9.1,True,False,False,132000,"184 Boulevard Hédi Chaker, Apt. 18, Sidi Bouzid, Tunisia",Quartier Médina,Standard,D,2013.0,2022-03-27,910
Gabès,200,33.85791769027665,10.115390643182916,House,23,258,5,2,0,13.8,False,True,False,727000,"124 Impasse Paris, Gabès, Tunisia",Hay Jardins,Good,E,2020.0,2023-03-28,2818
Sidi Bouzid,160,35.03631645253214,9.471679396996581,Duplex,4,179,3,2,0,11.6,False,False,True,337000,"117 Place Carthage, Apt. 13, Sidi Bouzid, Tunisia",El Médina,Good,A,,2024-03-09,1883
Siliana,80,36.0660889072497,9.39806535837912,Apartment,9,77,2,2,2,8.3,False,False,False,67000,"131 Avenue Omar Ibn Al Khattab, Siliana, Tunisia",,Standard,D,2022.0,2022-01-11,870
Tunis,634,36.78513327937906,10.166454670996796,Apartment,3,157,2,1,5,0.7,True,False,False,591000,"88 Place El Menzah, Apt. 1, Tunis, Tunisia",Centre Ville,Good,A,,2022-10-29,3764
Manouba,400,36.80179111737165,10.103011742448055,Penthouse,18,248,3,3,7,2.2,True,True,True,1577000,"186 Boulevard Bardo, Manouba, Tunisia",Hay Oliveraie,Premium,D,2023.0,2023-09-23,6359
Ben Arous,600,36.75554005426381,10.209582174620616,Studio,9,31,0,1,0,4.2,False,False,False,29000,"169 Impasse Kheireddine, Ben Arous, Tunisia",El Jardins,Standard,C,2023.0,2022-09-20,935
Ben Arous,600,36.74278639918691,10.215237588554302,Apartment,11,113,1,1,7,1.3,False,True,True,274000,"138 Impasse Abou El Kacem Chebbi, Apt. 36, Ben Arous, Tunisia",Cité Oliveraie,Basic,E,2023.0,2023-10-22,2425
Tozeur,70,33.90537714272452,8.129057216823998,House,16,252,3,2,0,13.9,False,True,False,538000,"140 Impasse El Ghazela, Tozeur, Tunisia",Hay Palmeraie,Basic,D,2022.0,2023-12-19,2135
Manouba,400,36.81960157262958,10.082872646610861,Villa,17,270,4,2,0,1.7,False,True,True,2077000,"83 Avenue Abou El Kacem Chebbi, Manouba, Tunisia",Résidence Parc,Good,G,,2022-11-13,7693
Medenine,200,33.33323394398515,10.496045871342059,Duplex,7,143,2,3,3,9.1,True,True,False,434000,"62 Place Ibn Sina, Apt. 27, Medenine, Tunisia",El Jardins,Good,B,,2023-10-28,3035
Sidi Bouzid,160,35.06212282647177,9.508533317843952,House,10,270,5,1,0,12.8,False,True,False,431000,"82 Impasse Mohamed V, Sidi Bouzid, Tunisia",Quartier Oliveraie,Basic,D,2023.0,2023-10-12,1596
Sfax,330,34.7556068791376,10.74738294604096,Apartment,33,149,1,1,4,5.3,True,False,False,275000,"99 Avenue Charles de Gaulle, Apt. 3, Sfax, Tunisia",Chihia,Standard,F,2013.0,2022-03-14,1846
Béja,100,36.70400186570458,9.172545206886031,House,3,275,4,1,0,12.7,False,True,True,624000,"129 Place 14 Janvier, Béja, Tunisia",El Parc,Good,A,,2023-01-08,2269
Kairouan,150,35.66643972747169,10.09989629000732,House,18,256,2,2,0,13.8,False,True,True,470000,"26 Impasse Ali Belhouane, Kairouan, Tunisia",,Good,D,2016.0,2022-07-17,1836
Bizerte,150,37.28828639550339,9.891816146943944,House,28,241,3,3,0,1.5,False,True,True,807000,"135 Impasse Ibn Khaldoun, Bizerte, Tunisia",Quartier Palmeraie,Good,D,2014.0,2023-01-31,3349
Ariana,350,36.879743204270525,10.188583778061155,Apartment,3,165,2,2,2,4.2,False,False,True,492000,"105 Avenue Ennasr, Apt. 17, Ariana, Tunisia",El Lac,Good,C,,2022-05-05,2982
Monastir,200,35.78686171717304,10.816841709876211,Apartment,19,103,4,2,5,3.2,True,True,True,352000,"167 Rue Cité Essalem, Monastir, Tunisia",Cité Essalem,Standard,E,2011.0,2022-09-21,3417
Ben Arous,600,36.731345277161765,10.238378263280149,Apartment,27,104,4,2,7,1.7,True,False,True,263000,"137 Impasse Tahar Haddad, Ben Arous, Tunisia",El Lac,Standard,F,2022.0,2022-12-09,2529
Tunis,634,36.781991377628486,10.176959129372925,Studio,12,50,0,1,7,2.4,True,False,False,80000,"125 Place El Ghazela, Apt. 5, Tunis, Tunisia",Médina,Standard,C,,2022-03-15,1600
Sidi Bouzid,160,35.0297689634651,9.495468876925942,Apartment,27,165,2,2,9,9.0,True,False,False,140000,"162 Boulevard Carthage, Sidi Bouzid, Tunisia",,Standard,B,,2023-12-05,848
Ariana,350,36.87581227363802,10.185804731798564,Villa,3,206,4,4,0,3.7,False,True,True,2179000,"26 Rue Paris, Ariana, Tunisia",Cité Jardins,Premium,C,,2023-11-12,10578
Tataouine,100,32.948181350722244,10.440595838025247,Apartment,5,119,4,2,2,7.3,False,False,True,190000,"43 Boulevard Abou El Kacem Chebbi, Tataouine, Tunisia",El Médina,Good,B,2022.0,2023-10-20,1597
Gafsa,120,34.42271631799933,8.795350926350707,House,51,185,2,3,0,7.6,False,True,True,300000,"84 Rue Mohamed V, Gafsa, Tunisia",,Good,E,,2023-07-09,1622
Medenine,200,33.34954601146124,10.52586842361561,Duplex,4,142,2,3,4,7.2,True,False,True,517000,"92 Boulevard Bardo, Apt. 16, Medenine, Tunisia",,Standard,D,,2024-02-10,3641
Manouba,400,36.79565805121079,10.10511589567698,Penthouse,9,132,2,3,9,1.4,False,True,True,1086000,"106 Place Mongi Slim, Apt. 12, Manouba, Tunisia",Résidence Lac,Premium,C,,2022-08-12,8227
Tunis,634,36.81198409541379,10.202254922724501,Villa,19,338,6,3,0,3.1,False,True,True,3871000,"157 Impasse La Marsa, Tunis, Tunisia",Hay Médina,Standard,F,2023.0,2022-03-17,11453
Tataouine,100,32.915418107082246,10.463489908179348,Apartment,13,86,2,2,4,12.6,True,False,False,89000,"175 Avenue Omar Ibn Al Khattab, Apt. 38, Tataouine, Tunisia",Résidence Médina,Premium,C,,2022-08-23,1035
Nabeul,200,36.45471343081344,10.726233293489395,Apartment,34,71,3,2,8,5.1,True,True,False,135000,"60 Impasse 14 Janvier, Apt. 30, Nabeul, Tunisia",El Jardins,Standard,E,2019.0,2022-06-04,1901
Gafsa,120,34.42412174570736,8.775688829853491,House,44,198,2,2,0,7.2,False,True,True,353000,"171 Rue Hannibal, Gafsa, Tunisia",Hay Oliveraie,Good,C,,2022-04-07,1783
Gafsa,120,34.429365670139426,8.803450030540734,Villa,21,195,7,4,0,3.4,False,True,True,1063000,"74 Place Abou El Kacem Chebbi, Gafsa, Tunisia",El Lac,Good,B,2016.0,2023-12-03,5451
Gabès,200,33.88486524922061,10.10478612091633,Apartment,0,159,3,1,9,4.1,True,True,False,310000,"19 Impasse Liberté, Gabès, Tunisia",Hay Médina,Standard,B,,2023-06-24,1950
Ben Arous,600,36.75423739235574,10.205858275322274,Apartment,18,123,3,2,9,2.7,True,False,True,364000,"77 Impasse Kheireddine, Apt. 30, Ben Arous, Tunisia",Hay Oliveraie,Standard,E,,2022-04-23,2959
Manouba,400,36.7960429278438,10.096600086471604,Villa,6,357,5,3,0,3.1,False,True,True,2785000,"51 Impasse Bardo, Manouba, Tunisia",Hay Jardins,Standard,D,,2023-12-18,7801
Gabès,200,33.87191176418723,10.08228817988806,Studio,14,38,0,1,4,10.1,True,False,False,25000,"28 Avenue Hédi Chaker, Apt. 23, Gabès, Tunisia",,Premium,C,2021.0,2023-01-22,658
Manouba,400,36.80960664209592,10.088140489672393,Penthouse,10,186,4,2,8,1.1,False,False,True,1021000,"76 Boulevard Kheireddine, Apt. 26, Manouba, Tunisia",Quartier Médina,Premium,E,2023.0,2023-04-30,5489
Ariana,350,36.85040538215867,10.19379927087202,Villa,3,201,6,3,0,1.1,False,True,True,2781000,"176 Rue Jardins d'El Menzah, Ariana, Tunisia",Ennasr,Luxury,D,,2022-02-10,13836
Kef,120,36.16426421290411,8.73628728665377,Apartment,0,113,4,2,2,2.2,False,False,False,160000,"191 Impasse Omar Ibn Al Khattab, Kef, Tunisia",Quartier Oliveraie,Good,B,,2022-11-05,1416
Tataouine,100,32.95098510489596,10.461281029287028,Duplex,9,181,4,2,5,3.2,False,False,False,438000,"199 Avenue Bardo, Apt. 23, Tataouine, Tunisia",El Jardins,Standard,C,,2023-08-21,2420
Sousse,270,35.80481069137942,10.648393862723486,Villa,9,249,6,3,0,5.8,False,True,True,2371000,"159 Boulevard Sahloul, Sousse, Tunisia",Cité Lac,Good,C,,2022-04-17,9522
Siliana,80,36.09979786640545,9.388788230885718,House,8,207,4,3,0,8.2,False,True,True,394000,"194 Avenue Tahar Haddad, Siliana, Tunisia",,Standard,C,,2023-01-04,1903
Tunis,634,36.78719829435596,10.188695397853389,Studio,19,53,0,1,0,5.9,False,True,True,72000,"166 Rue Abou Hamed El Ghazali, Apt. 29, Tunis, Tunisia",Résidence Oliveraie,Standard,E,2017.0,2023-02-07,1358
Kasserine,120,35.18891623978747,8.834267670060983,House,41,190,4,3,0,1.1,False,True,True,376000,"149 Boulevard Mohamed V, Kasserine, Tunisia",,Basic,G,2016.0,2022-04-22,1979
Kebili,80,33.7114203687614,8.966518173971316,House,52,295,5,2,0,2.3,False,True,False,567000,"34 Rue El Ferdaous, Kebili, Tunisia",Quartier Jardins,Standard,E,2014.0,2022-01-12,1922
Ariana,350,36.8639353659942,10.172318842917587,Apartment,12,150,3,1,1,2.8,False,True,True,491000,"192 Impasse Ali Belhouane, Apt. 9, Ariana, Tunisia",Borj Louzir,Standard,B,,2022-03-01,3273
Jendouba,100,36.50804815109866,8.760172360644559,Villa,0,227,4,2,0,13.0,False,True,True,986000,"94 Place Tahar Sfar, Jendouba, Tunisia",,Premium,A,,2023-05-14,4344
Gabès,200,33.878150729717014,10.08783275488337,Apartment,7,171,1,1,7,12.8,False,False,False,244000,"70 Avenue Mongi Slim, Apt. 31, Gabès, Tunisia",,Basic,E,,2022-05-11,1427
Monastir,200,35.779771397510586,10.80787081677616,Villa,16,229,5,4,0,4.8,False,True,True,2332000,"192 Boulevard Bardo, Monastir, Tunisia",El Oliveraie,Good,E,2011.0,2023-03-19,10183
Sousse,270,35.83408217009867,10.649350576846425,Studio,12,68,0,1,8,4.1,True,False,False,80000,"20 Avenue Abou El Kacem Chebbi, Apt. 15, Sousse, Tunisia",Khezama,Standard,C,2023.0,2022-03-05,1176
Sousse,270,35.80766772248716,10.614815654367595,Duplex,14,215,3,2,2,1.1,False,False,False,1058000,"173 Impasse El Ferdaous, Sousse, Tunisia",Bouhsina,Premium,D,,2023-04-23,4921
Manouba,400,36.791675774139364,10.115856378094925,Apartment,17,118,1,1,6,2.1,False,False,False,197000,"94 Rue Tahar Sfar, Apt. 1, Manouba, Tunisia",,Basic,E,,2023-01-25,1669
Ben Arous,600,36.75470946308782,10.226663049800376,Apartment,34,71,3,1,8,2.2,True,False,False,136000,"138 Rue Hannibal, Apt. 17, Ben Arous, Tunisia",Cité Oliveraie,Premium,D,,2023-06-09,1915
Sfax,330,34.720935590955115,10.767777800337848,Villa,4,269,6,2,0,3.8,False,True,True,2875000,"28 Avenue Afran, Sfax, Tunisia",Gremda,Luxury,A,,2023-11-30,10688
Sfax,330,34.758999979594755,10.776709293466174,Apartment,22,141,1,2,3,3.7,True,False,True,282000,"144 Boulevard Gremda, Sfax, Tunisia",Gremda,Standard,E,2017.0,2022-12-27,2000
Gabès,200,33.88770273544904,10.076963935832584,Apartment,25,179,3,2,2,5.5,False,False,False,275000,"166 Rue Carthage, Apt. 30, Gabès, Tunisia",Cité Jardins,Premium,E,2018.0,2022-03-14,1536
Medenine,200,33.3205198513588,10.478965449355492,House,4,179,4,3,0,5.5,False,True,False,587000,"78 Impasse Ibn Sina, Medenine, Tunisia",El Médina,Standard,E,,2023-03-08,3279
Béja,100,36.71347396082462,9.163483073358018,Studio,3,36,0,1,8,14.1,True,False,False,20000,"36 Rue Ibn Khaldoun, Béja, Tunisia",El Centre,Standard,A,,2022-10-26,556
Béja,100,36.71360240201262,9.175952902785948,Villa,16,181,4,4,0,0.9,False,True,True,840000,"127 Rue Bardo, Béja, Tunisia",Cité Parc,Premium,F,2015.0,2024-02-01,4641
Sfax,330,34.76274913920356,10.765818802989086,House,11,121,5,1,0,5.6,False,True,False,470000,"35 Impasse Gremda, Sfax, Tunisia",Gremda,Premium,B,,2022-02-28,3884
Sidi Bouzid,160,35.05504868928415,9.496317575035617,House,7,236,4,2,0,8.9,False,True,False,408000,"95 Place Abou El Kacem Chebbi, Sidi Bouzid, Tunisia",,Good,D,,2023-10-19,1729
Sousse,270,35.80512515652633,10.646396020318699,Apartment,19,139,3,1,9,4.8,True,False,False,319000,"107 Rue Sahloul, Sousse, Tunisia",Khezama,Basic,E,,2023-03-12,2295
Sfax,330,34.729354944077954,10.767255392349735,Apartment,1,78,2,1,4,5.2,True,False,False,178000,"9 Boulevard Hannibal, Apt. 29, Sfax, Tunisia",Médina,Standard,C,,2022-10-22,2282
Medenine,200,33.33194809868215,10.526383613163233,House,42,188,4,1,0,9.2,False,True,True,441000,"93 Rue Carthage, Medenine, Tunisia",,Good,F,2009.0,2022-02-04,2346
Manouba,400,36.797577573974834,10.085956523538712,Apartment,25,70,3,2,0,5.4,False,False,False,115000,"95 Place Tahar Haddad, Manouba, Tunisia",Cité Parc,Good,D,2009.0,2022-02-22,1643
Manouba,400,36.83093361277812,10.073232220231816,Apartment,24,138,1,1,4,4.9,True,False,True,214000,"92 Rue Abou Hamed El Ghazali, Apt. 13, Manouba, Tunisia",,Basic,C,,2022-12-11,1551
Tunis,634,36.81633444939366,10.192766319536794,Apartment,29,172,4,1,2,2.3,False,False,True,650000,"24 Avenue Abou El Kacem Chebbi, Apt. 39, Tunis, Tunisia",,Standard,B,2021.0,2023-07-19,3779
Kairouan,150,35.69491892887052,10.123321965531924,Apartment,17,78,3,2,0,11.9,False,False,True,84000,"13 Boulevard Habib Bourguiba, Apt. 9, Kairouan, Tunisia",,Good,D,2010.0,2024-02-22,1077
Tunis,634,36.83028009595783,10.159763837878323,Apartment,6,83,2,1,2,1.7,False,True,True,322000,"18 Place République, Apt. 14, Tunis, Tunisia",Le Bardo,Premium,D,2021.0,2024-02-01,3880
Bizerte,150,37.290491966137644,9.88121549668287,Villa,2,436,7,4,0,14.3,False,True,True,3379000,"85 Avenue Carthage, Bizerte, Tunisia",El Jardins,Luxury,C,,2024-01-02,7750
Kef,120,36.189967106718655,8.696317496330735,Villa,8,354,4,4,0,5.7,False,True,True,1496000,"1 Boulevard Omar Ibn Al Khattab, Kef, Tunisia",,Luxury,C,2023.0,2022-10-22,4226
Ben Arous,600,36.760809358322284,10.252424129030063,Apartment,26,96,1,2,4,3.6,True,False,True,176000,"34 Place 14 Janvier, Apt. 12, Ben Arous, Tunisia",El Lac,Premium,D,,2022-10-29,1833
Kairouan,150,35.69869092847697,10.096556533040243,House,7,254,3,2,0,6.8,False,True,True,675000,"170 Rue Ibn Khaldoun, Kairouan, Tunisia",Résidence Centre,Standard,D,,2022-12-22,2657
Tunis,634,36.7834973986643,10.17461467450001,Apartment,10,78,2,1,4,4.3,True,False,True,243000,"61 Place Bab Bhar, Apt. 12, Tunis, Tunisia",,Premium,B,,2022-04-16,3115
Tunis,634,36.82281951558003,10.191574955073259,Apartment,7,105,3,2,9,2.6,True,False,False,457000,"190 Impasse Bab Saadoun, Apt. 5, Tunis, Tunisia",Quartier Jardins,Premium,C,2023.0,2024-01-11,4352
Sfax,330,34.7385671827797,10.738055076757943,Apartment,10,162,3,1,7,5.2,False,False,True,476000,"132 Place Afran, Apt. 33, Sfax, Tunisia",Hay Oliveraie,Good,E,,2022-05-18,2938
Manouba,400,36.80574473639116,10.095451246985894,House,49,238,4,1,0,5.8,False,True,True,761000,"158 Rue Carthage, Manouba, Tunisia",El Lac,Standard,F,2023.0,2023-05-30,3197
Ariana,350,36.883927776644704,10.20265430517911,Villa,2,204,5,3,0,3.6,False,True,True,2138000,"134 Boulevard Tahar Haddad, Ariana, Tunisia",Menzah 6,Luxury,A,,2022-06-25,10480
Jendouba,100,36.49168264583273,8.782365913222536,House,10,123,3,3,0,10.2,False,True,True,219000,"165 Rue Abou El Kacem Chebbi, Jendouba, Tunisia",,Good,C,2022.0,2023-05-09,1780
Mahdia,150,35.48290276539111,11.085828411782488,Duplex,5,193,4,2,6,14.5,False,False,True,732000,"123 Impasse Mohamed V, Apt. 7, Mahdia, Tunisia",Cité Oliveraie,Premium,B,,2024-03-11,3793
Ben Arous,600,36.74630299509654,10.227193367745658,Apartment,23,153,3,2,0,3.0,False,False,False,345000,"183 Impasse Hédi Chaker, Apt. 6, Ben Arous, Tunisia",,Standard,D,2021.0,2022-05-24,2255
Kasserine,120,35.16496419871184,8.83952558650581,Studio,21,59,0,1,6,13.4,True,False,False,26000,"156 Avenue Ali Belhouane, Apt. 18, Kasserine, Tunisia",,Basic,G,2015.0,2023-09-29,441
Tunis,634,36.81461160791648,10.192266115526456,Apartment,29,148,3,2,6,5.1,True,True,False,435000,"141 Boulevard Kheireddine, Apt. 39, Tunis, Tunisia",Carthage,Premium,D,,2022-09-25,2939
Tunis,634,36.794907161480594,10.172283424058204,Villa,2,270,5,2,0,0.6,False,True,True,3662000,"130 Place El Menzah, Tunis, Tunisia",Manar,Luxury,A,,2024-03-23,13563
Jendouba,100,36.48236256155481,8.788875498592306,House,7,228,4,1,0,10.2,False,True,True,479000,"26 Rue Paris, Jendouba, Tunisia",Cité Centre,Luxury,D,2021.0,2022-06-13,2101
Kef,120,36.159589856366786,8.719784116776173,House,7,111,3,1,0,12.9,False,True,True,184000,"167 Place Abou Hamed El Ghazali, Kef, Tunisia",,Luxury,C,,2023-07-03,1658
Sidi Bouzid,160,35.05678479424258,9.505341607414481,House,54,113,2,1,0,1.7,False,True,True,162000,"56 Impasse El Ferdaous, Sidi Bouzid, Tunisia",Hay Lac,Standard,G,2015.0,2023-09-28,1434
Monastir,200,35.7749518880185,10.824165184410655,Apartment,29,169,1,1,4,1.2,True,False,False,397000,"106 Boulevard Khniss, Monastir, Tunisia",Centre Ville,Good,D,2018.0,2023-07-12,2349
Tozeur,70,33.8985484591504,8.142038251272151,House,19,175,5,1,0,6.0,False,True,False,392000,"107 Rue Charles de Gaulle, Tozeur, Tunisia",Cité Jardins,Premium,F,2012.0,2022-03-19,2240
Jendouba,100,36.51716297101864,8.768332752730236,House,11,199,4,1,0,0.7,False,True,False,480000,"110 Boulevard Ali Belhouane, Jendouba, Tunisia",,Basic,F,,2022-04-23,2412
Manouba,400,36.805465044081664,10.113941966838263,Duplex,23,193,2,3,3,5.2,True,False,True,742000,"66 Boulevard Tahar Haddad, Manouba, Tunisia",Cité Oliveraie,Basic,C,2018.0,2023-03-09,3845
Sfax,330,34.759456023383116,10.747458999013212,Villa,8,368,4,3,0,4.5,False,True,True,3344000,"18 Rue Hédi Chaker, Sfax, Tunisia",,Standard,E,,2023-03-19,9087
Ben Arous,600,36.75582853172707,10.212924657531792,Apartment,14,72,4,1,2,2.8,False,False,True,203000,"24 Impasse Farhat Hached, Apt. 24, Ben Arous, Tunisia",Hay Palmeraie,Standard,B,,2024-02-20,2819
Zaghouan,150,36.382893938206976,10.163856025069597,Apartment,34,92,3,1,3,3.1,False,False,True,217000,"143 Rue 14 Janvier, Apt. 36, Zaghouan, Tunisia",,Standard,D,2013.0,2022-10-18,2359
Tunis,634,36.822525375211605,10.19450174509016,Apartment,23,179,2,1,2,5.4,False,False,False,495000,"32 Impasse Lafayette, Apt. 28, Tunis, Tunisia",Médina,Standard,C,2012.0,2023-09-04,2765
Tunis,634,36.78393831594066,10.198686439635512,Apartment,7,142,1,1,7,2.4,True,False,True,454000,"14 Boulevard El Ferdaous, Apt. 23, Tunis, Tunisia",Lac 1,Standard,F,2023.0,2023-05-03,3197
Gafsa,120,34.422302203795276,8.776119756164794,House,36,283,3,2,0,9.6,False,True,True,506000,"148 Place Ibn Khaldoun, Gafsa, Tunisia",,Good,E,2011.0,2022-06-16,1788
Sfax,330,34.74292381805127,10.739867662136179,Apartment,19,99,1,2,3,4.0,False,False,False,192000,"58 Rue Sakiet Ezzit, Apt. 36, Sfax, Tunisia",Gremda,Standard,D,,2023-11-18,1939
Sousse,270,35.83733232746762,10.638721753844415,Apartment,25,88,1,2,2,4.0,False,False,False,190000,"147 Avenue Hammam Sousse, Sousse, Tunisia",,Good,C,,2022-10-04,2159
Nabeul,200,36.43562950484366,10.721911609988453,House,35,287,4,1,0,13.3,False,True,True,813000,"197 Place Tahar Sfar, Nabeul, Tunisia",El Centre,Premium,C,2014.0,2023-06-22,2833
Ariana,350,36.846712432578634,10.173450119377597,Apartment,23,171,2,2,1,1.5,False,False,True,442000,"143 Rue Abou Hamed El Ghazali, Apt. 18, Ariana, Tunisia",Borj Louzir,Good,C,2019.0,2024-02-04,2585
Ariana,350,36.86688992246858,10.212617408879426,Villa,4,389,7,3,0,2.1,False,True,True,5445000,"180 Boulevard Borj Louzir, Ariana, Tunisia",Menzah 5,Basic,B,,2022-09-10,13997
Ben Arous,600,36.72917491069937,10.205750232248565,Apartment,21,136,4,2,2,5.5,False,False,False,331000,"90 Rue Ali Belhouane, Apt. 10, Ben Arous, Tunisia",El Oliveraie,Basic,C,2022.0,2024-03-25,2434
Kef,120,36.18623851383435,8.730874784269302,House,24,169,3,1,0,9.7,False,True,False,206000,"169 Impasse Kheireddine, Kef, Tunisia",,Good,C,2009.0,2022-06-08,1219
Monastir,200,35.76883694452844,10.818680719940387,Apartment,4,119,2,1,6,1.5,False,False,False,302000,"24 Place Skanes, Apt. 27, Monastir, Tunisia",Résidence Lac,Standard,B,,2022-11-20,2538
Sousse,270,35.829317324874836,10.623310644456208,Villa,23,337,5,4,0,1.5,False,True,True,3555000,"95 Boulevard Sahloul, Sousse, Tunisia",Kantaoui,Standard,E,2009.0,2024-03-26,10549
Ben Arous,600,36.729630418303884,10.24006142590508,Apartment,14,117,2,2,5,3.1,True,False,True,286000,"84 Place El Ferdaous, Apt. 4, Ben Arous, Tunisia",Hay Médina,Premium,C,,2023-09-08,2444
Gafsa,120,34.431682495647074,8.788037799952784,Apartment,28,72,2,2,9,10.1,False,False,False,67000,"41 Place 14 Janvier, Apt. 6, Gafsa, Tunisia",Quartier Centre,Good,D,2020.0,2022-11-26,931
Monastir,200,35.7895842064496,10.834961541878101,Apartment,14,167,3,2,4,1.0,True,False,False,505000,"125 Place Cité Essalem, Apt. 18, Monastir, Tunisia",Skanes,Good,B,,2023-05-23,3024
Kef,120,36.16789409940892,8.707524052347168,Villa,9,409,5,3,0,2.0,False,True,True,1896000,"194 Place République, Kef, Tunisia",,Premium,C,2023.0,2022-11-04,4636
Kasserine,120,35.15350550708393,8.811892850670894,House,23,289,3,2,0,10.1,False,True,False,419000,"89 Impasse Ibn Khaldoun, Kasserine, Tunisia",,Good,E,2009.0,2023-12-17,1450
Nabeul,200,36.46010978731783,10.755430005349126,Apartment,26,135,3,1,7,7.1,True,False,True,247000,"73 Place Ibn Khaldoun, Apt. 20, Nabeul, Tunisia",El Centre,Good,E,2019.0,2023-07-19,1830
Ben Arous,600,36.77643662919306,10.234717355877473,Apartment,7,96,2,1,0,5.4,False,True,True,247000,"57 Impasse Mohamed V, Ben Arous, Tunisia",,Good,F,,2023-01-10,2573
Manouba,400,36.79360506616804,10.077282517272446,House,45,206,4,2,0,1.1,False,True,True,661000,"2 Avenue Mohamed V, Manouba, Tunisia",El Jardins,Basic,C,2020.0,2023-09-29,3209
Mahdia,150,35.52024254857684,11.066137823818,House,17,285,5,3,0,9.9,False,True,False,1162000,"55 Avenue Bardo, Mahdia, Tunisia",,Standard,D,2016.0,2022-04-22,4077
Tunis,634,36.81241425105068,10.195573104437734,Penthouse,6,277,2,2,13,3.9,False,False,True,2011000,"84 Rue Bardo, Apt. 28, Tunis, Tunisia",Centre Ville,Standard,D,2021.0,2024-02-11,7260
Tunis,634,36.81666386138662,10.198222912642805,Apartment,28,156,2,2,2,2.4,False,False,True,476000,"137 Avenue El Menzah, Apt. 23, Tunis, Tunisia",Médina,Good,B,2023.0,2022-08-13,3051
Tunis,634,36.78431069527299,10.193876031837325,Apartment,18,175,3,1,1,4.9,False,False,True,597000,"11 Impasse Lafayette, Apt. 5, Tunis, Tunisia",Lac 2,Good,C,2011.0,2022-07-31,3411
Tunis,634,36.82404263786611,10.170806752122916,Apartment,30,165,3,2,1,3.7,False,False,True,470000,"110 Place Kheireddine, Apt. 27, Tunis, Tunisia",Carthage,Luxury,E,2018.0,2023-05-27,2848
Gabès,200,33.88842236369966,10.08890810319185,Studio,8,31,0,1,6,5.2,True,False,False,22000,"30 Impasse Bardo, Apt. 21, Gabès, Tunisia",Quartier Centre,Good,D,,2022-12-27,710
Sousse,270,35.847398553324126,10.611271178621775,Apartment,8,168,4,1,0,2.6,False,False,False,537000,"118 Boulevard Kantaoui, Apt. 7, Sousse, Tunisia",Khezama,Standard,D,,2023-08-18,3196
Bizerte,150,37.27838964219165,9.857225177352477,Villa,14,170,7,3,0,8.9,False,True,True,1079000,"112 Place Carthage, Bizerte, Tunisia",,Luxury,B,,2023-08-16,6347
Tunis,634,36.817111010258856,10.165294514170933,Apartment,9,109,2,1,4,5.9,True,False,False,285000,"102 Boulevard La Marsa, Apt. 15, Tunis, Tunisia",Lac 2,Luxury,C,2021.0,2024-03-01,2615
Bizerte,150,37.26116916309492,9.873618540552288,Apartment,9,87,1,1,4,6.6,True,False,False,138000,"200 Avenue Ali Belhouane, Apt. 8, Bizerte, Tunisia",,Good,C,2022.0,2022-07-23,1586
Bizerte,150,37.29514174749984,9.859485718607399,Duplex,17,152,2,2,1,8.6,False,False,False,345000,"131 Avenue Mongi Slim, Bizerte, Tunisia",Résidence Jardins,Good,E,2009.0,2022-08-17,2270
Ariana,350,36.8447120010559,10.208548841592702,Studio,25,41,0,1,0,0.9,False,False,True,54000,"61 Rue Ennasr, Apt. 13, Ariana, Tunisia",Ennasr,Good,E,2016.0,2022-09-19,1317
Zaghouan,150,36.4028309766167,10.163889255619088,Apartment,32,96,4,2,2,2.6,False,False,False,168000,"155 Avenue Liberté, Apt. 5, Zaghouan, Tunisia",Hay Médina,Basic,E,,2023-01-11,1750
Nabeul,200,36.433630727857995,10.744796394651154,Duplex,22,191,2,3,1,6.2,False,False,True,708000,"198 Impasse Liberté, Apt. 37, Nabeul, Tunisia",Résidence Parc,Good,D,2015.0,2024-03-17,3707
Kasserine,120,35.15884395730759,8.81323802143258,Apartment,24,80,1,1,8,5.9,False,True,True,71000,"149 Impasse El Ghazela, Apt. 37, Kasserine, Tunisia",Cité Oliveraie,Premium,D,2016.0,2023-07-20,888
Sidi Bouzid,160,35.04747147075786,9.490484230995436,Apartment,3,108,4,2,5,11.2,True,True,True,136000,"163 Place Abou Hamed El Ghazali, Apt. 21, Sidi Bouzid, Tunisia",Quartier Oliveraie,Good,B,,2022-07-11,1259
Tunis,634,36.819241372918114,10.171973128822309,Studio,18,42,0,1,8,3.7,False,False,True,64000,"121 Impasse La Marsa, Apt. 18, Tunis, Tunisia",Centre Ville,Basic,F,,2024-03-09,1524
Manouba,400,36.806798582819106,10.092273583816521,Apartment,4,88,2,1,9,5.9,True,False,True,162000,"15 Boulevard Kheireddine, Apt. 20, Manouba, Tunisia",Hay Parc,Good,C,,2022-08-01,1841
Kasserine,120,35.19640447319832,8.820012447836968,House,3,276,3,1,0,10.7,False,True,True,550000,"116 Rue Abou El Kacem Chebbi, Kasserine, Tunisia",,Premium,C,,2023-07-16,1993
Béja,100,36.71534086191734,9.17442741044143,House,9,236,2,1,0,13.7,False,True,True,405000,"95 Boulevard Mohamed V, Béja, Tunisia",Hay Médina,Premium,D,,2023-06-30,1716
Gabès,200,33.884629704064515,10.085816137213188,House,25,169,4,3,0,9.7,False,True,True,428000,"166 Rue Farhat Hached, Gabès, Tunisia",,Standard,D,2013.0,2022-04-01,2533
Sousse,270,35.84526449701897,10.622884278243314,Apartment,22,158,1,2,5,4.3,True,False,True,375000,"99 Impasse Mongi Slim, Apt. 3, Sousse, Tunisia",Bouhsina,Standard,A,2009.0,2023-05-30,2373
Ariana,350,36.882290786578004,10.17577375318233,House,53,267,2,1,0,4.6,False,True,False,886000,"167 Avenue Jardins d'El Menzah, Ariana, Tunisia",Borj Louzir,Standard,F,2010.0,2023-05-16,3318
Tunis,634,36.81432813511998,10.201849275921912,Apartment,4,76,3,2,9,0.7,True,True,False,342000,"129 Avenue El Menzah, Tunis, Tunisia",La Marsa,Standard,F,,2022-04-25,4500
Sidi Bouzid,160,35.02173747191991,9.509216348004962,Villa,24,411,6,3,0,5.1,False,True,True,1629000,"27 Boulevard Abou El Kacem Chebbi, Sidi Bouzid, Tunisia",,Good,E,2018.0,2023-02-11,3964
Tunis,634,36.80414416802078,10.20378575542205,Apartment,7,164,4,2,5,0.6,True,False,False,727000,"130 Avenue Farhat Hached, Apt. 29, Tunis, Tunisia",Médina,Good,B,2021.0,2023-08-29,4433
Kairouan,150,35.686941002181506,10.089679343493678,Villa,11,394,5,4,0,11.9,False,True,True,2013000,"135 Place Abou El Kacem Chebbi, Kairouan, Tunisia",,Luxury,E,,2022-09-16,5109
Tataouine,100,32.91701512624586,10.441086752311255,House,49,264,3,3,0,7.7,False,True,False,441000,"41 Boulevard Omar Ibn Al Khattab, Tataouine, Tunisia",Hay Oliveraie,Standard,F,2019.0,2023-01-28,1670
Kairouan,150,35.65775087046313,10.081793398317167,House,8,192,3,2,0,3.3,False,True,False,460000,"73 Impasse Mokhtar Attia, Kairouan, Tunisia",Quartier Médina,Good,D,2023.0,2024-02-03,2396
Manouba,400,36.78963302201732,10.093147177187078,Apartment,16,126,1,2,1,0.7,False,False,False,266000,"199 Boulevard Paris, Apt. 4, Manouba, Tunisia",,Standard,E,2010.0,2023-03-26,2111
Sidi Bouzid,160,35.05307891881288,9.467869177710817,Apartment,0,71,4,2,9,11.3,True,False,False,76000,"166 Boulevard Abou Hamed El Ghazali, Apt. 7, Sidi Bouzid, Tunisia",Résidence Lac,Standard,C,,2024-02-24,1070
Zaghouan,150,36.38431602165861,10.150471447475866,Apartment,11,107,2,2,9,2.4,False,True,True,208000,"174 Impasse Tahar Sfar, Apt. 39, Zaghouan, Tunisia",Cité Oliveraie,Premium,F,,2022-12-19,1944
Kef,120,36.167459149098406,8.69478050190545,House,22,183,4,1,0,3.1,False,True,True,355000,"86 Rue 14 Janvier, Kef, Tunisia",,Basic,D,,2023-03-19,1940
Tataouine,100,32.91594242891028,10.47208656979384,Apartment,34,74,1,1,7,11.5,True,False,True,53000,"170 Avenue Kheireddine, Tataouine, Tunisia",,Basic,F,2018.0,2023-07-30,716
Manouba,400,36.825473562638805,10.089703228117754,Apartment,13,147,1,2,5,6.0,False,False,False,248000,"168 Impasse Bardo, Apt. 6, Manouba, Tunisia",Résidence Palmeraie,Standard,E,,2024-03-09,1687
Gafsa,120,34.433191038366374,8.785863783683403,House,28,164,5,1,0,11.7,False,True,False,286000,"144 Impasse Bardo, Gafsa, Tunisia",Hay Lac,Luxury,F,2017.0,2023-09-20,1744
Medenine,200,33.34875621317413,10.510633557623137,House,44,135,2,2,0,12.0,False,True,True,259000,"85 Avenue Abou Hamed El Ghazali, Medenine, Tunisia",,Basic,G,2009.0,2023-11-15,1919
Ben Arous,600,36.759736700753,10.216605068426865,Apartment,17,151,1,1,2,5.9,False,True,True,354000,"180 Place Tahar Haddad, Apt. 28, Ben Arous, Tunisia",Hay Jardins,Standard,E,2011.0,2024-02-10,2344
Tunis,634,36.78345032103814,10.179278339099506,Studio,19,32,0,1,0,2.3,False,False,True,40000,"93 Boulevard La Marsa, Apt. 14, Tunis, Tunisia",Hay Palmeraie,Standard,F,2018.0,2022-05-20,1250
Tunis,634,36.82604869423454,10.184974862925928,Villa,5,295,4,2,0,2.1,False,True,True,3603000,"50 Avenue El Menzah, Tunis, Tunisia",La Marsa,Good,B,2022.0,2024-02-08,12214
Tunis,634,36.823119552085096,10.20608121714806,Apartment,9,105,4,2,9,1.3,True,False,False,466000,"20 Boulevard 14 Janvier, Tunis, Tunisia",Lac 2,Good,C,,2023-09-11,4438
Tunis,634,36.78968081020691,10.191088881957098,Apartment,14,137,3,2,8,2.3,True,False,False,537000,"190 Place El Manar, Apt. 22, Tunis, Tunisia",Lac 2,Standard,C,,2023-10-06,3920
Sousse,270,35.833214678685,10.658597772367914,Studio,21,69,0,1,6,2.5,True,True,True,100000,"34 Place Omar Ibn Al Khattab, Apt. 11, Sousse, Tunisia",Khezama,Good,D,2012.0,2022-07-06,1449
Tunis,634,36.83078003669764,10.190833930586207,Apartment,32,157,3,1,1,4.6,False,False,True,436000,"198 Place Lafayette, Tunis, Tunisia",Lac 1,Standard,F,,2022-11-14,2777
Manouba,400,36.79658073959911,10.11192779190653,Studio,21,47,0,1,8,5.3,True,False,False,32000,"185 Impasse Liberté, Apt. 24, Manouba, Tunisia",Quartier Oliveraie,Basic,D,2010.0,2023-10-25,681
Sfax,330,34.72095145671055,10.774334965208583,Apartment,18,146,3,2,6,4.6,True,False,False,386000,"114 Place Carthage, Apt. 29, Sfax, Tunisia",Cité Centre,Good,F,,2024-03-28,2644
Tunis,634,36.827009806207236,10.175641669738422,Apartment,33,154,2,1,2,4.1,False,False,False,374000,"80 Impasse Bab Saadoun, Tunis, Tunisia",Centre Ville,Standard,D,2020.0,2023-04-13,2429
Sfax,330,34.747131764749156,10.756807136604841,Apartment,24,126,1,2,5,4.7,True,True,True,312000,"113 Impasse Gremda, Apt. 25, Sfax, Tunisia",Médina,Standard,F,2021.0,2023-02-21,2476
Ben Arous,600,36.75018825274941,10.218818544455408,Studio,6,68,0,1,8,4.6,False,False,True,79000,"136 Impasse Mongi Slim, Ben Arous, Tunisia",Cité Médina,Standard,E,2022.0,2023-06-16,1162
Tunis,634,36.81960648102252,10.203308828208325,Apartment,15,166,3,1,4,3.1,True,True,True,601000,"36 Boulevard Omar Ibn Al Khattab, Apt. 31, Tunis, Tunisia",Hay Oliveraie,Standard,D,2016.0,2022-02-02,3620
Sousse,270,35.84653754296173,10.618339064243747,Apartment,7,89,3,1,5,2.3,True,False,False,243000,"27 Place Tahar Sfar, Sousse, Tunisia",Kantaoui,Good,C,2023.0,2023-04-29,2730
Sidi Bouzid,160,35.05703718248283,9.497671572071356,Apartment,34,74,1,2,7,4.8,False,False,False,57000,"22 Avenue Bardo, Apt. 33, Sidi Bouzid, Tunisia",Cité Lac,Standard,F,2018.0,2022-05-20,770
Gabès,200,33.869041870034515,10.076564230646076,House,14,279,5,1,0,13.1,False,True,True,814000,"112 Rue 14 Janvier, Gabès, Tunisia",Quartier Lac,Standard,E,,2022-12-04,2918
Monastir,200,35.765899863344224,10.846810411839076,Apartment,20,93,2,1,2,2.1,False,False,False,222000,"116 Boulevard Carthage, Monastir, Tunisia",Skanes,Basic,E,,2023-04-26,2387
Sfax,330,34.74725893374479,10.771352733044894,Studio,14,35,0,1,4,4.2,False,True,True,44000,"129 Boulevard Sakiet Ezzit, Apt. 6, Sfax, Tunisia",Gremda,Standard,F,2021.0,2023-11-10,1257
Ben Arous,600,36.74115761755546,10.239269407778743,Studio,16,56,0,1,5,5.8,False,False,False,51000,"58 Rue Mokhtar Attia, Apt. 7, Ben Arous, Tunisia",,Standard,E,,2023-08-08,911
Ariana,350,36.83890607531389,10.18936606728865,Penthouse,12,250,4,3,10,3.7,False,False,True,1890000,"86 Avenue Abou Hamed El Ghazali, Apt. 19, Ariana, Tunisia",Menzah 5,Good,C,,2023-03-30,7560
Monastir,200,35.78383766742712,10.808504828277066,Duplex,2,136,3,3,5,5.5,True,False,True,770000,"179 Avenue Hédi Chaker, Apt. 31, Monastir, Tunisia",Centre Ville,Good,C,,2023-01-01,5662
Sfax,330,34.75675017872235,10.747051564940596,Apartment,18,168,4,1,1,0.6,False,True,True,544000,"21 Rue Sfax El Jadida, Apt. 10, Sfax, Tunisia",Hay Jardins,Luxury,E,2022.0,2023-10-10,3238
Kebili,80,33.71171405564092,8.963859857128767,Apartment,10,99,4,2,7,11.0,False,False,False,96000,"187 Place Tahar Sfar, Apt. 8, Kebili, Tunisia",Cité Lac,Good,D,2022.0,2022-03-16,970
Nabeul,200,36.456102179773886,10.717872527631446,House,15,230,2,2,0,12.6,False,True,False,713000,"74 Avenue El Ghazela, Nabeul, Tunisia",Cité Parc,Standard,D,2018.0,2022-07-14,3100
Manouba,400,36.78524563999608,10.117478221369014,Apartment,10,97,4,2,0,4.9,False,False,False,204000,"32 Rue Bardo, Apt. 40, Manouba, Tunisia",,Standard,D,,2022-04-06,2103
Mahdia,150,35.493081500438365,11.078183850139023,Villa,6,413,7,4,0,10.8,False,True,True,3918000,"17 Rue Abou El Kacem Chebbi, Mahdia, Tunisia",Résidence Oliveraie,Premium,D,,2022-11-28,9487
Manouba,400,36.83436751502361,10.082571562899945,Apartment,10,122,1,2,1,5.2,False,False,False,222000,"153 Place Hédi Chaker, Apt. 33, Manouba, Tunisia",Cité Parc,Standard,F,,2024-02-03,1820
Tataouine,100,32.92085853705917,10.459042989381734,House,49,176,5,2,0,8.9,False,True,True,291000,"62 Avenue Kheireddine, Tataouine, Tunisia",Hay Médina,Standard,E,2014.0,2022-10-13,1653
Gabès,200,33.90467243173003,10.118990717409538,Apartment,21,120,2,1,9,2.1,False,False,True,199000,"110 Rue Bardo, Apt. 16, Gabès, Tunisia",El Oliveraie,Good,E,2017.0,2023-03-05,1658
Nabeul,200,36.45144377600328,10.752255514126336,House,53,225,4,3,0,10.8,False,True,False,608000,"107 Avenue Kheireddine, Nabeul, Tunisia",Résidence Médina,Good,G,2018.0,2022-07-12,2702
Monastir,200,35.759287292654996,10.8500719092102,Apartment,20,178,1,1,0,4.0,False,False,False,333000,"135 Boulevard Farhat Hached, Apt. 34, Monastir, Tunisia",Cité Essalem,Standard,E,,2023-03-10,1871
Mahdia,150,35.5278176617018,11.045386447893959,Apartment,26,76,4,1,4,10.5,False,True,True,159000,"130 Place Tahar Sfar, Apt. 25, Mahdia, Tunisia",Cité Jardins,Standard,D,2023.0,2023-05-26,2092
Tunis,634,36.79647115624015,10.161507749875339,Studio,13,44,0,1,1,5.6,False,False,False,60000,"163 Impasse Mohamed V, Tunis, Tunisia",Lac 1,Standard,D,,2023-11-03,1364
Medenine,200,33.32848587994491,10.51729778947076,House,51,176,2,2,0,5.0,False,True,False,377000,"192 Rue Hannibal, Medenine, Tunisia",,Basic,G,2021.0,2023-03-09,2142
Béja,100,36.719515780358265,9.161119848357338,House,15,289,4,3,0,11.2,False,True,True,715000,"18 Boulevard Mokhtar Attia, Béja, Tunisia",,Good,E,,2022-06-04,2474
Sfax,330,34.732711276238945,10.784369166712064,Studio,13,44,0,1,1,3.7,False,False,True,54000,"198 Place Sfax El Jadida, Apt. 22, Sfax, Tunisia",Médina,Good,D,,2022-04-17,1227
Manouba,400,36.81588417976295,10.092808047320307,Apartment,17,111,3,2,7,1.8,True,False,True,264000,"12 Boulevard 14 Janvier, Apt. 12, Manouba, Tunisia",,Premium,C,2019.0,2022-08-11,2378
Medenine,200,33.32322692567487,10.525808839864185,House,4,115,5,2,0,8.5,False,True,True,354000,"176 Impasse El Ghazela, Medenine, Tunisia",El Oliveraie,Basic,D,,2023-12-04,3078
Manouba,400,36.82544245046315,10.086073865122545,House,34,223,5,3,0,1.7,False,True,False,823000,"123 Avenue Ibn Sina, Manouba, Tunisia",Résidence Lac,Standard,C,,2023-03-21,3691
Tunis,634,36.785003434786056,10.159331277868878,Studio,8,48,0,1,9,3.6,False,False,True,73000,"184 Impasse Farhat Hached, Apt. 13, Tunis, Tunisia",Menzah,Luxury,D,,2022-01-13,1521
Medenine,200,33.320918907475274,10.50553842918072,Studio,15,67,0,1,8,8.6,True,False,True,53000,"52 Rue Mohamed V, Apt. 20, Medenine, Tunisia",El Palmeraie,Good,D,,2023-03-20,791
Tunis,634,36.827938171060275,10.1813371714003,Apartment,29,104,3,2,1,5.5,False,False,False,305000,"122 Boulevard El Manar, Apt. 13, Tunis, Tunisia",,Good,C,2020.0,2022-06-01,2933
Manouba,400,36.82654727412281,10.09429433099299,Apartment,32,163,3,1,3,0.9,True,False,False,299000,"92 Rue Bardo, Manouba, Tunisia",Hay Centre,Basic,D,2014.0,2023-09-23,1834
Gafsa,120,34.4358291772884,8.795593636864325,House,52,119,5,3,0,5.8,False,True,False,252000,"70 Rue Ali Belhouane, Gafsa, Tunisia",Résidence Palmeraie,Basic,F,2012.0,2022-10-19,2118
Gafsa,120,34.40909818529517,8.77706080294879,Apartment,20,103,4,2,3,2.2,True,False,True,181000,"112 Impasse Mokhtar Attia, Apt. 25, Gafsa, Tunisia",Quartier Médina,Basic,C,2016.0,2023-12-26,1757
Kairouan,150,35.684965107826905,10.078134830409219,Apartment,1,172,2,2,6,3.6,False,False,False,266000,"48 Impasse Ali Belhouane, Apt. 24, Kairouan, Tunisia",Résidence Oliveraie,Good,A,,2023-08-28,1547
Sidi Bouzid,160,35.031377009388144,9.487539973314059,Studio,1,49,0,1,0,11.6,False,True,False,22000,"69 Rue Mongi Slim, Apt. 6, Sidi Bouzid, Tunisia",Hay Centre,Standard,B,,2022-10-10,449
Zaghouan,150,36.42761122465223,10.142026678131122,Apartment,12,142,4,2,0,4.4,False,False,True,281000,"155 Avenue Paris, Apt. 21, Zaghouan, Tunisia",Résidence Jardins,Standard,D,,2022-09-30,1979
Ben Arous,600,36.76910283785572,10.224903364253331,Apartment,1,145,1,2,8,3.8,True,False,False,389000,"21 Boulevard Ibn Khaldoun, Apt. 20, Ben Arous, Tunisia",Hay Médina,Premium,B,,2023-04-22,2683
Manouba,400,36.82421953613098,10.101770740081005,Apartment,30,123,2,2,2,4.7,False,False,True,229000,"155 Impasse Abou El Kacem Chebbi, Apt. 29, Manouba, Tunisia",,Good,B,2020.0,2023-10-05,1862
Sousse,270,35.84382977207512,10.630147127617507,House,33,147,4,3,0,1.1,False,True,False,605000,"187 Boulevard Khezama, Sousse, Tunisia",Bouhsina,Good,E,2014.0,2022-07-07,4116
Mahdia,150,35.50981522099108,11.068700934030941,House,13,233,3,3,0,0.5,False,True,False,1096000,"112 Boulevard Omar Ibn Al Khattab, Mahdia, Tunisia",,Premium,E,,2024-03-17,4704
Sfax,330,34.73646914709003,10.742515602184374,Apartment,9,98,3,1,5,1.1,False,False,False,248000,"20 Impasse Mohamed V, Apt. 11, Sfax, Tunisia",Afran,Standard,C,,2023-05-26,2531
Sfax,330,34.72027797034562,10.736133577529982,Apartment,22,79,2,1,9,2.5,True,False,True,178000,"156 Impasse 14 Janvier, Apt. 5, Sfax, Tunisia",Afran,Premium,D,,2022-05-19,2253
Tunis,634,36.82517671321226,10.168323745611934,Penthouse,8,298,3,3,14,2.0,True,False,True,2957000,"94 Boulevard Lafayette, Apt. 37, Tunis, Tunisia",Lac 1,Standard,D,2023.0,2022-11-15,9923
Béja,100,36.71117533746409,9.193501770021303,House,39,186,3,1,0,15.0,False,True,False,252000,"155 Avenue Mohamed V, Béja, Tunisia",Quartier Oliveraie,Good,D,,2022-12-30,1355
Tunis,634,36.79750080565437,10.18180223462059,Apartment,21,96,2,2,4,1.6,True,False,False,336000,"96 Impasse Mokhtar Attia, Apt. 37, Tunis, Tunisia",Résidence Médina,Premium,E,2012.0,2022-11-27,3500
Kef,120,36.16572555326487,8.737887286073098,House,6,211,2,2,0,3.6,False,True,False,430000,"136 Boulevard 14 Janvier, Kef, Tunisia",,Good,A,,2023-11-14,2038
Zaghouan,150,36.42037907000086,10.16148948114825,Villa,6,213,5,3,0,10.0,False,True,True,1191000,"81 Boulevard Charles de Gaulle, Zaghouan, Tunisia",Cité Centre,Premium,A,2022.0,2023-05-14,5592
Medenine,200,33.3352386874286,10.51461806068536,House,36,121,4,2,0,13.9,False,True,True,254000,"30 Rue Carthage, Medenine, Tunisia",Hay Oliveraie,Basic,D,2022.0,2023-02-04,2099
Manouba,400,36.79159380776949,10.072430950129588,Apartment,28,152,4,2,3,1.6,True,True,False,370000,"48 Impasse El Ferdaous, Apt. 36, Manouba, Tunisia",,Standard,E,,2023-09-06,2434
Tunis,634,36.7824986466289,10.185830086870228,Duplex,8,157,2,2,1,1.2,False,False,True,993000,"181 Impasse Bab Bhar, Apt. 40, Tunis, Tunisia",Manar,Good,C,,2023-08-25,6325
Ariana,350,36.86026974526239,10.196500767445427,Apartment,32,82,2,1,8,3.9,True,False,True,178000,"52 Rue Riadh El Andalous, Apt. 5, Ariana, Tunisia",Ennasr,Standard,F,,2023-08-22,2171
Mahdia,150,35.479973157020865,11.058334330982872,House,18,155,4,2,0,9.2,False,True,False,454000,"45 Impasse Abou El Kacem Chebbi, Mahdia, Tunisia",Hay Jardins,Standard,C,,2023-07-02,2929
Kasserine,120,35.18310340806004,8.827534685098371,Villa,22,288,6,3,0,12.1,False,True,True,1120000,"175 Boulevard Farhat Hached, Kasserine, Tunisia",Hay Médina,Premium,E,,2024-03-01,3889
Tunis,634,36.81811096031561,10.168150948219841,Apartment,30,111,4,1,8,4.3,True,False,True,386000,"17 Place Ibn Sina, Apt. 20, Tunis, Tunisia",Le Bardo,Basic,E,,2023-05-27,3477
Tunis,634,36.82215710022409,10.185921562022672,Studio,13,49,0,1,9,4.4,True,False,True,70000,"182 Avenue Ibn Sina, Apt. 33, Tunis, Tunisia",Résidence Médina,Standard,C,2023.0,2022-11-17,1429
Sousse,270,35.810038154971494,10.621436023792693,Apartment,13,106,1,1,0,3.4,False,True,False,269000,"36 Avenue Sahloul, Apt. 2, Sousse, Tunisia",Médina,Standard,D,,2022-03-10,2538
Tunis,634,36.812901523228476,10.197996979660623,Studio,3,47,0,1,4,5.7,True,True,True,77000,"95 Impasse El Manar, Tunis, Tunisia",La Marsa,Premium,A,,2022-04-18,1638
Sfax,330,34.73638138910146,10.74821502145638,Apartment,9,130,2,1,6,5.3,True,False,False,278000,"23 Rue Gremda, Apt. 31, Sfax, Tunisia",Afran,Basic,D,,2023-10-02,2138
Sousse,270,35.842850580345534,10.643063414587543,Apartment,17,165,2,1,9,5.8,False,False,False,373000,"148 Rue Bouhsina, Apt. 21, Sousse, Tunisia",Sahloul,Standard,D,2016.0,2022-10-20,2261
Tunis,634,36.80390427436415,10.180895009763965,Apartment,10,148,2,2,8,2.6,True,False,False,482000,"120 Place Abou El Kacem Chebbi, Apt. 36, Tunis, Tunisia",Centre Ville,Basic,E,2023.0,2023-06-26,3257
Tunis,634,36.79171282339682,10.187840131503242,Apartment,2,90,3,1,4,5.3,True,False,True,418000,"197 Avenue Liberté, Apt. 4, Tunis, Tunisia",Médina,Good,C,,2023-08-30,4644
Kebili,80,33.69703712552714,8.993382258833718,House,33,158,4,2,0,14.7,False,True,False,237000,"133 Avenue Ibn Khaldoun, Kebili, Tunisia",Cité Médina,Standard,G,2012.0,2022-09-13,1500
Manouba,400,36.80840917576309,10.09629428030948,Villa,3,385,5,4,0,4.7,False,True,True,3823000,"43 Avenue Bardo, Manouba, Tunisia",,Luxury,C,,2023-11-22,9930
Manouba,400,36.81269258937053,10.117837800155938,House,27,200,5,3,0,2.4,False,True,False,679000,"182 Avenue Ali Belhouane, Manouba, Tunisia",,Standard,D,2013.0,2022-07-27,3395
Sfax,330,34.75564090499299,10.757856503489894,Studio,2,63,0,1,6,1.1,True,False,True,82000,"73 Rue Gremda, Apt. 36, Sfax, Tunisia",Hay Médina,Standard,A,,2024-01-05,1302
Gafsa,120,34.43633496329864,8.78831177493904,House,41,233,4,1,0,13.0,False,True,True,404000,"33 Boulevard Hannibal, Gafsa, Tunisia",,Premium,E,,2022-08-16,1734
Kebili,80,33.70371835243506,8.953215788639218,House,10,181,3,2,0,8.6,False,True,True,345000,"137 Rue Omar Ibn Al Khattab, Kebili, Tunisia",Cité Médina,Standard,B,,2023-02-12,1906
Mahdia,150,35.50279681317275,11.04949092935113,House,10,211,2,2,0,5.8,False,True,False,730000,"165 Avenue Mongi Slim, Mahdia, Tunisia",Hay Palmeraie,Premium,B,,2024-02-10,3460
Manouba,400,36.83014210749258,10.088770340674817,Villa,12,179,6,3,0,4.3,False,True,True,1388000,"149 Avenue Kheireddine, Manouba, Tunisia",El Parc,Luxury,A,2023.0,2022-08-03,7754
Tunis,634,36.82911320072667,10.183152764504735,Apartment,1,72,4,1,0,1.3,False,True,False,312000,"185 Place El Manar, Apt. 37, Tunis, Tunisia",La Marsa,Standard,B,,2023-09-24,4333
Mahdia,150,35.51117721893381,11.064347022224467,Studio,2,68,0,1,9,7.5,False,True,True,74000,"8 Rue Mohamed V, Apt. 37, Mahdia, Tunisia",Cité Lac,Standard,C,,2023-08-03,1088
Siliana,80,36.06586903084834,9.369191060950397,Apartment,7,77,4,1,7,12.7,True,False,False,83000,"167 Avenue Hannibal, Apt. 27, Siliana, Tunisia",El Palmeraie,Standard,D,2022.0,2023-03-18,1078
Nabeul,200,36.43125730561388,10.74364770220917,Apartment,30,139,3,1,4,12.9,True,False,False,213000,"164 Rue Omar Ibn Al Khattab, Apt. 35, Nabeul, Tunisia",,Good,G,2021.0,2022-01-31,1532
Medenine,200,33.337243709760024,10.515399248578547,Duplex,9,178,2,3,6,12.8,True,False,True,550000,"165 Boulevard Bardo, Apt. 26, Medenine, Tunisia",El Jardins,Good,F,2022.0,2022-03-10,3090
Tunis,634,36.79252352404997,10.164728302921466,Studio,10,66,0,1,5,2.1,False,False,False,105000,"177 Rue La Marsa, Apt. 27, Tunis, Tunisia",Manar,Basic,D,,2022-11-16,1591
Bizerte,150,37.26971661154819,9.89522926916092,House,36,152,3,2,0,9.2,False,True,False,326000,"119 Avenue Hédi Chaker, Bizerte, Tunisia",Quartier Lac,Good,F,,2022-10-06,2145
Tunis,634,36.81702109075062,10.177446181239645,House,17,169,4,3,0,3.3,False,True,False,952000,"81 Boulevard Bab Saadoun, Tunis, Tunisia",Cité Palmeraie,Basic,E,,2023-05-20,5633
Bizerte,150,37.27526360848771,9.853110650558856,Apartment,7,162,4,2,5,7.4,True,True,True,379000,"89 Impasse El Ferdaous, Apt. 24, Bizerte, Tunisia",,Standard,E,,2022-04-27,2340
Tunis,634,36.8307287948188,10.189820365234747,House,7,210,2,2,0,4.2,False,True,True,1127000,"82 Avenue La Marsa, Tunis, Tunisia",La Marsa,Standard,D,,2023-01-09,5367
Tunis,634,36.795770203423174,10.185790419710761,Studio,4,64,0,1,5,5.6,True,False,False,99000,"116 Avenue Bab Bhar, Apt. 4, Tunis, Tunisia",Menzah,Standard,A,,2023-12-03,1547
Tunis,634,36.78697411830345,10.204791833440378,House,21,266,2,2,0,3.8,False,True,True,1362000,"158 Impasse El Menzah, Tunis, Tunisia",Médina,Good,C,2016.0,2024-01-28,5120
Sidi Bouzid,160,35.02203924939417,9.49320151590276,House,12,195,4,1,0,5.0,False,True,False,329000,"41 Boulevard Carthage, Sidi Bouzid, Tunisia",,Good,B,,2023-08-15,1687
Monastir,200,35.76477272312695,10.837078069132426,Apartment,1,152,1,2,6,4.2,True,True,False,432000,"81 Avenue El Ferdaous, Apt. 32, Monastir, Tunisia",Skanes,Basic,A,,2023-08-11,2842
Kairouan,150,35.69194106836201,10.108270986445572,Penthouse,11,130,2,3,6,0.5,False,False,True,422000,"120 Impasse Mongi Slim, Kairouan, Tunisia",,Premium,B,,2023-12-05,3246
Gafsa,120,34.431124973012764,8.8036234546976,Villa,14,259,5,3,0,11.6,False,True,True,1137000,"6 Rue Hédi Chaker, Gafsa, Tunisia",,Luxury,C,2022.0,2023-04-15,4390
Manouba,400,36.788331335549486,10.088545738289008,House,11,235,4,3,0,2.2,False,True,False,1013000,"130 Impasse Charles de Gaulle, Manouba, Tunisia",,Premium,C,2022.0,2023-05-23,4311
Ben Arous,600,36.74071437398155,10.252700698103272,Apartment,21,86,3,1,9,4.3,True,True,True,239000,"56 Place Carthage, Apt. 4, Ben Arous, Tunisia",,Good,E,2017.0,2023-11-06,2779
Gabès,200,33.87586948898334,10.10983063496202,House,31,120,3,1,0,4.5,False,True,False,224000,"127 Place Bardo, Gabès, Tunisia",Hay Palmeraie,Basic,D,2023.0,2022-03-19,1867
Ben Arous,600,36.762536258194054,10.213904061873869,Apartment,4,79,4,1,6,2.9,True,True,True,213000,"173 Impasse Abou Hamed El Ghazali, Apt. 1, Ben Arous, Tunisia",Cité Parc,Good,B,,2023-08-13,2696
Gafsa,120,34.41234988401058,8.773064228177653,Apartment,6,166,1,2,6,5.3,True,False,False,246000,"111 Avenue Ibn Khaldoun, Gafsa, Tunisia",,Standard,D,,2022-09-22,1482
Tunis,634,36.80205636391297,10.168216253282527,House,54,144,3,2,0,5.2,False,True,True,580000,"104 Boulevard El Ghazela, Tunis, Tunisia",Manar,Good,F,2023.0,2023-10-07,4028
Gafsa,120,34.401382574137344,8.80296965284036,Studio,15,67,0,1,5,12.7,False,False,True,36000,"103 Rue Mohamed V, Apt. 13, Gafsa, Tunisia",,Basic,F,,2022-10-07,537
Tunis,634,36.829780491569046,10.173578519351578,Apartment,19,82,4,1,0,2.7,False,False,True,268000,"19 Impasse Bab Bhar, Apt. 36, Tunis, Tunisia",,Standard,D,2021.0,2022-12-03,3268
Medenine,200,33.331825343971275,10.476854590638718,House,42,132,5,3,0,1.3,False,True,False,358000,"160 Place Hannibal, Medenine, Tunisia",,Standard,E,2020.0,2023-09-30,2712
Jendouba,100,36.51011253441652,8.797371994787431,Studio,22,67,0,1,7,14.0,False,False,False,27000,"33 Rue Ibn Khaldoun, Apt. 22, Jendouba, Tunisia",Cité Parc,Basic,E,2010.0,2023-01-08,403
Kebili,80,33.686430415017995,8.951583317468359,Apartment,27,160,3,1,6,0.5,True,True,False,225000,"94 Avenue Tahar Sfar, Apt. 33, Kebili, Tunisia",,Standard,D,,2023-12-15,1406
Tunis,634,36.821004162498575,10.187314537417707,Apartment,12,175,4,2,2,3.1,False,False,False,582000,"12 Rue La Marsa, Apt. 22, Tunis, Tunisia",El Médina,Standard,B,,2023-09-24,3326
Kef,120,36.15984302788139,8.721027349523114,Apartment,1,81,1,2,4,14.1,True,False,True,90000,"133 Impasse Hédi Chaker, Apt. 33, Kef, Tunisia",Quartier Jardins,Basic,C,,2023-02-07,1111
Gafsa,120,34.41584588614219,8.777436257773543,House,39,258,5,2,0,7.1,False,True,False,495000,"84 Place 14 Janvier, Gafsa, Tunisia",Résidence Palmeraie,Standard,G,2015.0,2022-03-22,1919
Jendouba,100,36.514586570914844,8.796646759633632,Apartment,31,135,1,1,9,2.0,True,True,True,156000,"42 Impasse Ali Belhouane, Jendouba, Tunisia",El Médina,Luxury,E,2020.0,2022-09-27,1156
Sidi Bouzid,160,35.03331783134199,9.508157646800317,House,21,274,5,2,0,10.3,False,True,False,462000,"77 Place El Ferdaous, Sidi Bouzid, Tunisia",,Good,D,2018.0,2022-02-09,1686
Sousse,270,35.81982313589761,10.648191801761506,Apartment,25,143,1,1,4,2.9,True,False,True,324000,"137 Impasse Kantaoui, Apt. 20, Sousse, Tunisia",Kantaoui,Premium,E,,2023-09-21,2266
Zaghouan,150,36.40199386322821,10.163176616326105,Duplex,6,180,3,2,7,13.5,True,False,False,536000,"5 Boulevard Hédi Chaker, Apt. 8, Zaghouan, Tunisia",Quartier Oliveraie,Standard,F,2023.0,2023-04-11,2978
Sidi Bouzid,160,35.05868806218251,9.465170840393554,House,15,137,4,3,0,6.9,False,True,False,217000,"150 Boulevard Paris, Sidi Bouzid, Tunisia",El Parc,Standard,E,2015.0,2023-04-10,1584
Kairouan,150,35.699924666565515,10.115876742076022,Studio,28,30,0,1,6,10.5,False,False,True,13000,"177 Rue El Ferdaous, Apt. 17, Kairouan, Tunisia",Quartier Jardins,Good,E,,2022-11-13,433
Medenine,200,33.35446553571563,10.486545566984276,House,48,225,4,1,0,14.7,False,True,True,451000,"199 Place Abou Hamed El Ghazali, Medenine, Tunisia",,Basic,G,2011.0,2022-03-28,2004
Tunis,634,36.821755960437734,10.199006636734252,House,42,204,5,3,0,5.0,False,True,True,1025000,"14 Place Lafayette, Tunis, Tunisia",Lac 2,Standard,F,2017.0,2023-06-05,5025
Ben Arous,600,36.74275751672271,10.250913003918116,Apartment,2,154,4,2,7,5.7,True,False,False,487000,"44 Place Hédi Chaker, Apt. 40, Ben Arous, Tunisia",Résidence Oliveraie,Standard,B,,2022-10-16,3162
Gafsa,120,34.40289300731996,8.766495462662357,Villa,17,449,5,3,0,4.0,False,True,True,2230000,"98 Avenue El Ghazela, Gafsa, Tunisia",,Good,F,2013.0,2022-04-16,4967
Medenine,200,33.341779056902574,10.505289623556116,Villa,17,216,4,2,0,12.4,False,True,True,1016000,"63 Rue Tahar Haddad, Medenine, Tunisia",,Luxury,E,,2022-05-26,4704
Zaghouan,150,36.410057504165046,10.119148456465773,House,18,167,5,3,0,4.8,False,True,True,944000,"180 Rue Kheireddine, Zaghouan, Tunisia",,Good,C,2016.0,2023-01-25,5653
Kasserine,120,35.1952183387311,8.807629404636707,House,32,162,3,1,0,6.7,False,True,True,249000,"5 Impasse République, Kasserine, Tunisia",Hay Médina,Luxury,E,2018.0,2022-09-16,1537
Ben Arous,600,36.735453097636174,10.204000725876304,Villa,6,385,7,3,0,2.3,False,True,True,4420000,"108 Avenue Ali Belhouane, Ben Arous, Tunisia",,Standard,D,,2022-01-30,11481
Ariana,350,36.8658429216647,10.217213344196049,Apartment,12,92,3,2,6,3.1,True,False,True,284000,"106 Place Ennasr, Apt. 31, Ariana, Tunisia",Ennasr,Standard,E,2023.0,2022-11-30,3087
Bizerte,150,37.28269735830402,9.890032873424023,House,7,137,5,3,0,4.6,False,True,False,461000,"187 Rue El Ferdaous, Bizerte, Tunisia",Résidence Palmeraie,Standard,G,,2022-09-10,3365
Manouba,400,36.78506406017293,10.099100764923985,Apartment,20,134,4,2,6,4.4,False,False,False,275000,"36 Place Ibn Sina, Apt. 21, Manouba, Tunisia",,Good,D,2011.0,2023-01-06,2052
Kairouan,150,35.67607814887528,10.09954839721104,House,35,151,5,1,0,7.0,False,True,True,272000,"123 Place Tahar Haddad, Kairouan, Tunisia",,Basic,G,2016.0,2022-05-19,1801
Tunis,634,36.785110659266756,10.190721768053464,Apartment,22,166,2,1,5,5.4,True,False,False,390000,"118 Place Bab Saadoun, Apt. 23, Tunis, Tunisia",Médina,Premium,C,2019.0,2023-09-05,2349
Tozeur,70,33.91986102074293,8.146757442493064,Apartment,6,121,3,1,6,0.6,False,False,False,182000,"198 Boulevard Tahar Haddad, Apt. 13, Tozeur, Tunisia",Hay Lac,Good,D,,2022-08-15,1504
Kebili,80,33.70336453170308,8.951069081811323,Villa,9,300,7,2,0,4.9,False,True,True,1552000,"72 Place Carthage, Kebili, Tunisia",,Premium,B,,2022-06-28,5173
Sousse,270,35.83191284770389,10.61821931810526,House,21,194,2,1,0,3.2,False,True,False,689000,"198 Boulevard Hammam Sousse, Sousse, Tunisia",Kantaoui,Good,E,2023.0,2022-05-19,3552
Kef,120,36.20121972816774,8.720555811953462,Duplex,18,131,2,3,3,7.0,True,False,True,229000,"54 Impasse Ibn Sina, Apt. 23, Kef, Tunisia",Hay Parc,Good,E,2019.0,2023-04-19,1748
Ben Arous,600,36.73616019417785,10.25141690287406,Apartment,16,130,2,1,6,1.1,False,False,True,336000,"185 Boulevard Tahar Sfar, Apt. 37, Ben Arous, Tunisia",,Good,F,2013.0,2023-02-20,2585
Sfax,330,34.74151827316677,10.738944922593584,Duplex,23,143,3,2,0,2.5,False,False,True,575000,"102 Boulevard Charles de Gaulle, Sfax, Tunisia",Résidence Parc,Premium,D,2011.0,2023-08-25,4021
Sousse,270,35.83084164522075,10.622259945350642,Studio,27,41,0,1,4,3.5,False,False,True,43000,"11 Boulevard Bardo, Sousse, Tunisia",Quartier Médina,Standard,E,2010.0,2023-12-18,1049
Ariana,350,36.877684672593865,10.211491103678311,Studio,22,34,0,1,9,2.8,False,False,False,36000,"168 Boulevard Riadh El Andalous, Apt. 14, Ariana, Tunisia",Menzah 6,Basic,F,2014.0,2023-05-13,1059
Medenine,200,33.36384736779274,10.501593476551225,House,21,202,5,3,0,9.7,False,True,False,561000,"138 Boulevard République, Medenine, Tunisia",,Good,C,2013.0,2022-07-15,2777
Sfax,330,34.73834784398639,10.772973780272325,Studio,29,56,0,1,1,1.5,False,False,False,54000,"70 Avenue Ibn Sina, Apt. 38, Sfax, Tunisia",,Basic,D,2009.0,2023-12-14,964
Gafsa,120,34.4070235328171,8.786345775689657,House,19,233,2,3,0,9.7,False,True,False,423000,"63 Rue Carthage, Gafsa, Tunisia",,Good,C,,2023-11-05,1815
Monastir,200,35.77981238000655,10.80567365614052,Apartment,27,95,4,2,4,0.7,True,False,True,519000,"58 Avenue Mongi Slim, Apt. 27, Monastir, Tunisia",Cité Essalem,Good,D,2010.0,2022-03-02,5463
Kasserine,120,35.16809920427534,8.848064239928359,House,26,298,5,1,0,9.0,False,True,False,478000,"184 Impasse Ali Belhouane, Kasserine, Tunisia",Cité Parc,Good,D,2021.0,2022-11-30,1604
Nabeul,200,36.469107681099736,10.717461883245985,House,30,270,2,1,0,4.7,False,True,False,883000,"175 Avenue Ibn Khaldoun, Nabeul, Tunisia",Quartier Centre,Standard,C,,2024-03-15,3270
Tataouine,100,32.91213604413739,10.439034773850098,House,44,292,5,1,0,14.2,False,True,True,474000,"141 Avenue Habib Bourguiba, Tataouine, Tunisia",,Standard,D,,2023-04-11,1623
Gabès,200,33.9001383031277,10.079645129253676,Studio,29,68,0,1,9,6.2,True,False,False,43000,"168 Impasse Paris, Apt. 13, Gabès, Tunisia",Résidence Oliveraie,Standard,A,2023.0,2022-07-04,632
Tunis,634,36.81749984013137,10.161558280980655,Apartment,29,84,3,1,4,4.3,False,False,True,249000,"83 Boulevard Bardo, Apt. 6, Tunis, Tunisia",Médina,Good,C,2014.0,2022-05-03,2964
Tunis,634,36.81265689268739,10.174303364955957,Villa,15,284,4,2,0,6.0,False,True,True,2787000,"137 Rue Carthage, Tunis, Tunisia",Médina,Luxury,D,,2023-06-07,9813
Manouba,400,36.82384569814829,10.083684522441267,Villa,22,211,7,2,0,5.6,False,True,True,1442000,"107 Avenue Liberté, Manouba, Tunisia",,Good,E,2017.0,2023-03-18,6834
Sfax,330,34.747560091469495,10.747084126728796,Studio,22,49,0,1,5,4.3,True,False,True,52000,"102 Impasse Mohamed V, Apt. 19, Sfax, Tunisia",Afran,Good,G,2009.0,2022-10-13,1061
Kebili,80,33.71478301415561,8.987283901728038,House,39,274,3,1,0,3.6,False,True,False,446000,"3 Boulevard Mohamed V, Kebili, Tunisia",Quartier Lac,Basic,D,2013.0,2022-12-12,1628
Ariana,350,36.84384008995634,10.213929784429777,Villa,22,293,7,3,0,5.1,False,True,True,2587000,"86 Boulevard El Ghazela, Ariana, Tunisia",Quartier Lac,Standard,E,,2023-11-27,8829
Kairouan,150,35.682778762720716,10.080955524543352,Apartment,4,91,2,2,3,8.5,False,False,True,105000,"165 Place Abou El Kacem Chebbi, Apt. 9, Kairouan, Tunisia",Résidence Médina,Standard,B,,2022-08-15,1154
Manouba,400,36.80577709276798,10.080043014674255,Penthouse,1,203,2,3,5,1.9,True,False,True,1256000,"120 Boulevard Mongi Slim, Apt. 8, Manouba, Tunisia",Hay Palmeraie,Premium,C,,2022-05-13,6187
Gafsa,120,34.435417394443334,8.796943406720898,Villa,7,312,7,3,0,11.4,False,True,True,1617000,"42 Impasse Ali Belhouane, Gafsa, Tunisia",El Palmeraie,Premium,C,,2023-11-05,5183
Sfax,330,34.72088982601364,10.760606992634733,Apartment,23,158,4,1,3,3.9,True,True,False,380000,"48 Rue Ibn Sina, Apt. 19, Sfax, Tunisia",Quartier Jardins,Basic,D,,2023-03-22,2405
Sfax,330,34.756331252801296,10.782108152077551,Studio,18,69,0,1,9,0.8,True,False,True,90000,"45 Place Chihia, Sfax, Tunisia",Gremda,Premium,D,2017.0,2022-04-05,1304
Bizerte,150,37.27507589333709,9.89641396118057,House,24,156,4,1,0,0.7,False,True,False,436000,"110 Place Charles de Gaulle, Bizerte, Tunisia",El Parc,Luxury,G,2017.0,2023-02-16,2795
Nabeul,200,36.4530844485228,10.732209524729996,Villa,18,345,5,3,0,4.5,False,True,True,2437000,"23 Impasse Ali Belhouane, Nabeul, Tunisia",El Oliveraie,Basic,D,2010.0,2023-09-25,7064
Ben Arous,600,36.77071015642765,10.227949135522906,Villa,10,398,5,4,0,4.4,False,True,True,4547000,"25 Avenue Tahar Haddad, Ben Arous, Tunisia",,Good,C,,2022-03-20,11425
Tunis,634,36.805095125528226,10.181015624470492,Villa,20,342,6,3,0,5.8,False,True,True,3862000,"83 Avenue Hédi Chaker, Tunis, Tunisia",Quartier Parc,Good,E,2017.0,2023-04-25,11292
Gabès,200,33.898739250093485,10.114797077084402,Apartment,6,134,3,2,4,12.5,True,True,False,250000,"67 Impasse Habib Bourguiba, Apt. 18, Gabès, Tunisia",El Parc,Standard,E,2022.0,2022-09-21,1866
Sfax,330,34.735775999622014,10.751964992993527,Apartment,33,95,1,1,9,5.2,False,False,False,159000,"150 Place Bardo, Apt. 24, Sfax, Tunisia",Médina,Basic,G,2023.0,2023-08-10,1674
Kebili,80,33.70369640120195,8.972238625486856,Apartment,32,90,1,2,8,7.9,False,False,False,75000,"61 Rue Ibn Sina, Apt. 30, Kebili, Tunisia",Quartier Lac,Premium,G,2013.0,2023-08-02,833
Kebili,80,33.6910168605314,8.98329775423578,Duplex,25,152,2,2,6,6.4,True,False,False,243000,"41 Impasse Bardo, Apt. 20, Kebili, Tunisia",Quartier Palmeraie,Standard,B,2022.0,2022-08-16,1599
Kef,120,36.181924138286625,8.706602277420998,Apartment,26,174,1,2,5,14.0,False,False,False,148000,"31 Boulevard Ibn Sina, Apt. 15, Kef, Tunisia",,Basic,C,,2023-10-17,851
Mahdia,150,35.48494104964821,11.049142258020181,Villa,5,162,6,3,0,1.8,False,True,True,1438000,"35 Impasse Carthage, Mahdia, Tunisia",,Good,E,,2023-12-27,8877
Tataouine,100,32.9550640585878,10.441154984340978,Villa,23,443,7,4,0,9.4,False,True,True,2177000,"117 Place 14 Janvier, Tataouine, Tunisia",,Good,D,2015.0,2023-09-17,4914
Gabès,200,33.86484296446835,10.09623363958275,House,41,273,2,3,0,5.5,False,True,False,603000,"107 Place Mokhtar Attia, Gabès, Tunisia",,Standard,E,2022.0,2022-10-12,2209
Ben Arous,600,36.743654387168014,10.20505796251356,Villa,23,355,7,4,0,3.4,False,True,True,4209000,"194 Place Hédi Chaker, Ben Arous, Tunisia",,Basic,D,2018.0,2022-12-20,11856
Zaghouan,150,36.39395726086397,10.145505431196973,Apartment,13,93,2,2,7,1.5,True,False,False,184000,"56 Avenue Tahar Haddad, Apt. 39, Zaghouan, Tunisia",El Médina,Basic,C,,2023-10-21,1978
Ariana,350,36.86508561860099,10.188427946058844,Studio,8,48,0,1,4,4.8,False,False,False,60000,"135 Impasse Farhat Hached, Apt. 24, Ariana, Tunisia",,Good,F,,2022-06-16,1250
Gafsa,120,34.42276513781263,8.807275895911738,House,18,224,4,2,0,3.6,False,True,True,555000,"145 Rue Farhat Hached, Gafsa, Tunisia",Quartier Palmeraie,Standard,E,2023.0,2022-06-20,2478
Kasserine,120,35.16606742386151,8.818311340662998,Studio,21,67,0,1,3,9.6,False,False,False,24000,"141 Place Mohamed V, Apt. 35, Kasserine, Tunisia",Hay Oliveraie,Standard,D,,2023-04-03,358
Ben Arous,600,36.74047335220334,10.226188230635207,Apartment,18,172,2,2,8,5.7,True,False,False,398000,"43 Boulevard 14 Janvier, Ben Arous, Tunisia",Cité Oliveraie,Good,E,,2023-12-28,2314
Sousse,270,35.837476007435846,10.619899409209424,House,37,265,3,3,0,1.7,False,True,False,960000,"184 Place Sahloul, Sousse, Tunisia",Kantaoui,Basic,F,2023.0,2023-08-31,3623
Kasserine,120,35.18266480635703,8.80645749116747,House,29,119,5,2,0,0.9,False,True,True,261000,"24 Place Hédi Chaker, Kasserine, Tunisia",Cité Parc,Basic,E,,2024-03-25,2193
Manouba,400,36.805346648899196,10.11079325326014,Apartment,11,85,4,1,3,4.9,True,False,False,199000,"15 Impasse Abou El Kacem Chebbi, Apt. 27, Manouba, Tunisia",,Standard,F,,2022-04-13,2341
Tunis,634,36.79843664778872,10.18468685507227,Penthouse,0,238,2,3,5,2.0,True,True,True,2156000,"144 Impasse La Marsa, Apt. 20, Tunis, Tunisia",Manar,Basic,C,,2023-06-14,9059
Sousse,270,35.8097489616413,10.64669976955631,Apartment,2,101,1,2,6,5.3,False,True,False,292000,"66 Rue Charles de Gaulle, Apt. 38, Sousse, Tunisia",Sahloul,Premium,B,,2024-03-31,2891
Jendouba,100,36.47871395516344,8.798727132243775,House,14,132,5,1,0,9.1,False,True,False,199000,"12 Impasse Farhat Hached, Jendouba, Tunisia",,Good,C,,2022-01-12,1508
Mahdia,150,35.489509819321086,11.080919901585418,House,48,114,3,3,0,14.4,False,True,False,525000,"180 Rue Mokhtar Attia, Mahdia, Tunisia",,Standard,E,2015.0,2022-12-29,4605
Jendouba,100,36.49372646206503,8.792234178723724,Apartment,6,85,2,1,4,12.0,True,True,True,92000,"16 Rue Tahar Sfar, Jendouba, Tunisia",Résidence Centre,Basic,D,,2022-11-18,1082
Gabès,200,33.87236126488931,10.118495583561733,Studio,10,44,0,1,9,5.5,False,False,False,30000,"9 Boulevard Hédi Chaker, Apt. 9, Gabès, Tunisia",Cité Jardins,Good,F,,2024-03-15,682
